{"business_id": "ol2r325YnfuHcq7yeO3vdg", "name": "Subway", "address": "10659 Grand Ave, Ste 2", "city": "Sun City", "state": "AZ", "postal_code": "85351", "latitude": 33.60136, "longitude": -112.287538, "stars": 2.0, "review_count": 13, "is_open": 1, "attributes": {"RestaurantsTakeOut": "True", "RestaurantsReservations": "False", "GoodForKids": "True", "RestaurantsPriceRange2": "1", "WiFi": "u'no'", "Alcohol": "u'none'", "BusinessAcceptsCreditCards": "True", "Ambience": "None", "RestaurantsDelivery": "False", "BikeParking": "False", "NoiseLevel": "u'quiet'", "OutdoorSeating": "False", "Caters": "True", "DriveThru": "False", "RestaurantsTableService": "False", "RestaurantsGoodForGroups": "False", "RestaurantsAttire": "'casual'", "HasTV": "False", "BusinessParking": "None"}, "categories": "Sandwiches, Fast Food, Restaurants", "hours": null}
{"business_id": "GmIUJmlwf3fJxFm79EZNgw", "name": "Phoenix Pawn", "address": "9010 N 103rd Ave", "city": "Sun City", "state": "AZ", "postal_code": "85351", "latitude": 33.5664298, "longitude": -112.2816518, "stars": 5.0, "review_count": 3, "is_open": 1, "attributes": {"BikeParking": "True", "RestaurantsPriceRange2": "4", "BusinessParking": "{'garage': False, 'street': False, 'validated': False, 'lot': False, 'valet': False}", "BusinessAcceptsCreditCards": "True"}, "categories": "Shopping, Pawn Shops", "hours": {"Monday": "9:0-18:0", "Tuesday": "9:0-18:0", "Wednesday": "9:0-18:0", "Thursday": "9:0-18:0", "Friday": "9:0-18:0", "Saturday": "9:0-18:0"}}
{"business_id": "O4TYqnhpXpyrgJBkucaeaw", "name": "KFC", "address": "10661 Grand Ave", "city": "Sun City", "state": "AZ", "postal_code": "85351", "latitude": 33.6020880774, "longitude": -112.2895198281, "stars": 1.5, "review_count": 25, "is_open": 1, "attributes": {"WiFi": "'no'", "RestaurantsReservations": "False", "GoodForKids": "True", "BusinessParking": "{'garage': False, 'street': False, 'validated': False, 'lot': False, 'valet': False}", "RestaurantsAttire": "u'casual'", "BusinessAcceptsCreditCards": "True", "BikeParking": "True", "RestaurantsPriceRange2": "1", "NoiseLevel": "u'average'", "Caters": "True", "RestaurantsTakeOut": "True", "RestaurantsGoodForGroups": "True", "Ambience": "{'romantic': False, 'intimate': False, 'touristy': False, 'hipster': False, 'divey': False, 'classy': False, 'trendy': False, 'upscale': False, 'casual': False}", "RestaurantsDelivery": "False", "Alcohol": "u'none'", "OutdoorSeating": "False", "HasTV": "False"}, "categories": "Chicken Wings, Fast Food, Chicken Shop, Restaurants", "hours": {"Monday": "9:30-22:0", "Tuesday": "9:30-22:0", "Wednesday": "9:30-22:0", "Thursday": "9:30-22:0", "Friday": "9:30-23:0", "Saturday": "9:30-23:0", "Sunday": "9:30-22:0"}}
{"business_id": "rIhu4bA2CmSicOSJmTpGug", "name": "New York West Pastry & Bake Shop", "address": "10101 Grand Ave", "city": "Sun City", "state": "AZ", "postal_code": "85351", "latitude": 33.5986960791, "longitude": -112.2775053978, "stars": 4.0, "review_count": 143, "is_open": 1, "attributes": {"BusinessAcceptsCreditCards": "True", "BusinessParking": "{'garage': False, 'street': False, 'validated': False, 'lot': True, 'valet': False}", "RestaurantsDelivery": "False", "Caters": "True", "BikeParking": "True", "RestaurantsTakeOut": "True", "RestaurantsPriceRange2": "1"}, "categories": "Restaurants, Food, Bakeries", "hours": {"Tuesday": "6:0-18:0", "Wednesday": "6:0-18:0", "Thursday": "6:0-18:0", "Friday": "6:0-18:0", "Saturday": "6:0-18:0", "Sunday": "6:0-15:0"}}
{"business_id": "2y2d1wJrZAhHI2J7o2ndtg", "name": "Menke Funeral & Cremation Center", "address": "12420 N 103rd Ave", "city": "Sun City", "state": "AZ", "postal_code": "85351", "latitude": 33.59818, "longitude": -112.2815727, "stars": 4.5, "review_count": 6, "is_open": 1, "attributes": {"BusinessAcceptsCreditCards": "True"}, "categories": "Venues & Event Spaces, Local Services, Event Planning & Services, Funeral Services & Cemeteries", "hours": {"Monday": "8:0-17:0", "Tuesday": "8:0-17:0", "Wednesday": "8:0-17:0", "Thursday": "8:0-17:0", "Friday": "8:0-17:0", "Saturday": "8:0-14:0"}}
{"business_id": "_oUWOp4DIxmdBKxZ-uC2NQ", "name": "The CORE Institute - Peoria 2", "address": "10474 W Thunderbird Blvd", "city": "Sun City", "state": "AZ", "postal_code": "85351", "latitude": 33.6055805, "longitude": -112.2839478, "stars": 2.5, "review_count": 3, "is_open": 1, "attributes": {"ByAppointmentOnly": "True", "AcceptsInsurance": "True"}, "categories": "Doctors, Orthopedists, Neurologist, Health & Medical", "hours": null}
{"business_id": "8EIZAb0knT2u_z2gIxllXw", "name": "Filiberto's Mexican Food", "address": "10777 Grand Ave", "city": "Sun City", "state": "AZ", "postal_code": "85351", "latitude": 33.603017, "longitude": -112.292999, "stars": 2.5, "review_count": 43, "is_open": 1, "attributes": {"WiFi": "u'no'", "RestaurantsTakeOut": "True", "Ambience": "{'touristy': False, 'hipster': False, 'romantic': False, 'divey': False, 'intimate': False, 'trendy': False, 'upscale': False, 'classy': False, 'casual': True}", "Caters": "False", "RestaurantsPriceRange2": "1", "BusinessAcceptsCreditCards": "True", "HasTV": "True", "NoiseLevel": "'average'", "RestaurantsAttire": "'casual'", "RestaurantsTableService": "False", "BikeParking": "True", "BusinessParking": "{'garage': False, 'street': False, 'validated': False, 'lot': True, 'valet': False}", "Alcohol": "'none'", "RestaurantsReservations": "False", "RestaurantsGoodForGroups": "True", "DriveThru": "False", "GoodForKids": "True", "GoodForMeal": "{'dessert': False, 'latenight': False, 'lunch': True, 'dinner': True, 'brunch': False, 'breakfast': True}", "RestaurantsDelivery": "False", "OutdoorSeating": "False"}, "categories": "Restaurants, Mexican, Fast Food", "hours": {"Monday": "0:0-0:0", "Tuesday": "0:0-0:0", "Wednesday": "0:0-0:0", "Thursday": "0:0-0:0", "Friday": "0:0-0:0", "Saturday": "0:0-0:0", "Sunday": "0:0-0:0"}}
{"business_id": "P8AV927sZLwWzbTtEY-apA", "name": "Surface Savers", "address": "", "city": "Sun City", "state": "AZ", "postal_code": "85373", "latitude": 33.690766, "longitude": -112.315382, "stars": 5.0, "review_count": 5, "is_open": 1, "attributes": {"BusinessAcceptsCreditCards": "True", "BusinessAcceptsBitcoin": "False"}, "categories": "Contractors, Home Services, Home & Garden, Shopping, Countertop Installation, Masonry/Concrete, Commercial Real Estate, Real Estate, Local Services, Refinishing Services, Kitchen & Bath", "hours": {"Monday": "8:0-17:0", "Tuesday": "8:0-17:0", "Wednesday": "8:0-17:0", "Thursday": "8:0-17:0", "Friday": "8:0-17:0"}}
{"business_id": "V8e5QPOcULM-h8nTcsRH6g", "name": "Todd Edwards Air Conditioning", "address": "", "city": "Sun City", "state": "AZ", "postal_code": "85373", "latitude": 33.6825711, "longitude": -112.3039728, "stars": 3.5, "review_count": 4, "is_open": 1, "attributes": null, "categories": "Home Services, Heating & Air Conditioning/HVAC, Contractors", "hours": {"Monday": "9:0-17:0", "Tuesday": "9:0-17:0", "Wednesday": "9:0-17:0", "Thursday": "9:0-17:0", "Friday": "9:0-17:0", "Saturday": "9:0-17:0"}}
{"business_id": "Y35ovjGFEe9i82-XIVa-FQ", "name": "The Oxygen Store", "address": "18434 N 99th Ave", "city": "Sun City", "state": "AZ", "postal_code": "85373", "latitude": 33.6522438, "longitude": -112.2793373, "stars": 1.5, "review_count": 19, "is_open": 1, "attributes": null, "categories": "Medical Supplies, Shopping", "hours": {"Monday": "8:30-17:0", "Tuesday": "8:30-17:0", "Wednesday": "8:30-17:0", "Thursday": "8:30-17:0", "Friday": "8:30-17:0"}}
{"business_id": "S9BSFX03TBqAHFF1M4c08g", "name": "Greenway Family Auto Service", "address": "15030 N 99th Ave", "city": "Sun City", "state": "AZ", "postal_code": "85351", "latitude": 33.621616, "longitude": -112.269476, "stars": 3.5, "review_count": 19, "is_open": 1, "attributes": {"BusinessAcceptsCreditCards": "True"}, "categories": "Automotive, Auto Repair", "hours": {"Monday": "8:0-17:0", "Tuesday": "8:0-17:0", "Wednesday": "8:0-17:0", "Thursday": "8:0-17:0", "Friday": "8:0-17:0"}}
{"business_id": "uMvfhT3plydwp5f28wk7YA", "name": "Palmbrook Country Club", "address": "9350 W Greenway Rd", "city": "Sun City", "state": "AZ", "postal_code": "85351", "latitude": 33.6241949, "longitude": -112.2600016, "stars": 3.0, "review_count": 6, "is_open": 1, "attributes": {"GoodForKids": "False", "BikeParking": "True", "BusinessParking": "{'garage': False, 'street': False, 'validated': False, 'lot': False, 'valet': False}", "BusinessAcceptsCreditCards": "True"}, "categories": "Event Planning & Services, Golf, Active Life, Venues & Event Spaces", "hours": {"Monday": "6:30-17:0", "Tuesday": "6:30-17:0", "Wednesday": "6:30-20:0", "Thursday": "6:30-20:0", "Friday": "6:30-20:0", "Saturday": "6:30-17:0", "Sunday": "6:30-17:0"}}
{"business_id": "JaTMTpzALqsL2lesFRrQkw", "name": "Epcor Water", "address": "15626 Del Webb Blvd", "city": "Sun City", "state": "AZ", "postal_code": "85351", "latitude": 33.6263552, "longitude": -112.2877863, "stars": 1.5, "review_count": 36, "is_open": 1, "attributes": null, "categories": "Public Services & Government", "hours": null}
{"business_id": "IoMUTHajJFgJD0Jqqqt0PQ", "name": "Palm Valley Funeral Home", "address": "10761 Grand Ave", "city": "Sun City", "state": "AZ", "postal_code": "85351", "latitude": 33.602979, "longitude": -112.292451, "stars": 3.5, "review_count": 12, "is_open": 1, "attributes": {"BusinessAcceptsCreditCards": "True"}, "categories": "Funeral Services & Cemeteries, Local Services", "hours": {"Monday": "9:0-17:0", "Tuesday": "9:0-17:0", "Wednesday": "9:0-17:0", "Thursday": "9:0-17:0", "Friday": "9:0-17:0"}}
{"business_id": "tnEotbnOgVcBxXD3PtPm7Q", "name": "The Val Barber Shop", "address": "9009 N 103rd Ave", "city": "Sun City", "state": "AZ", "postal_code": "85351", "latitude": 33.5661472, "longitude": -112.280618, "stars": 2.5, "review_count": 3, "is_open": 1, "attributes": {"BusinessAcceptsCreditCards": "True", "RestaurantsPriceRange2": "2", "ByAppointmentOnly": "False", "BusinessParking": "{'garage': False, 'street': False, 'validated': False, 'lot': False, 'valet': False}", "BikeParking": "True"}, "categories": "Beauty & Spas, Barbers, Hair Salons", "hours": null}
{"business_id": "Q1itFc-ptu1hGIAMWU0qBw", "name": "Coco's Bakery Restaurant", "address": "9801 W Bell Rd", "city": "Sun City", "state": "AZ", "postal_code": "85351", "latitude": 33.6375174, "longitude": -112.2707773, "stars": 3.0, "review_count": 37, "is_open": 1, "attributes": {"WheelchairAccessible": "True", "OutdoorSeating": "False", "HasTV": "False", "GoodForKids": "True", "Alcohol": "'beer_and_wine'", "Caters": "True", "BusinessAcceptsCreditCards": "True", "RestaurantsTakeOut": "True", "BusinessParking": "{'garage': False, 'street': False, 'validated': False, 'lot': True, 'valet': False}", "RestaurantsTableService": "True", "GoodForMeal": "{'dessert': False, 'latenight': False, 'lunch': False, 'dinner': False, 'brunch': False, 'breakfast': True}", "BikeParking": "True", "RestaurantsAttire": "u'casual'", "RestaurantsPriceRange2": "2", "NoiseLevel": "u'average'", "Ambience": "{'romantic': False, 'intimate': False, 'classy': False, 'hipster': False, 'divey': False, 'touristy': False, 'trendy': False, 'upscale': False, 'casual': True}", "RestaurantsReservations": "False", "WiFi": "'free'", "RestaurantsDelivery": "False", "ByAppointmentOnly": "False", "RestaurantsGoodForGroups": "True"}, "categories": "Bakeries, Food, Breakfast & Brunch, American (Traditional), Restaurants", "hours": {"Monday": "6:0-22:0", "Tuesday": "6:0-22:0", "Wednesday": "6:0-22:0", "Thursday": "6:0-22:0", "Friday": "6:0-22:0", "Saturday": "6:0-22:0", "Sunday": "6:0-22:0"}}
{"business_id": "TL-D_z9E1eKJQqSioemFfw", "name": "Subway", "address": "10050 W Bell Rd, Ste 12", "city": "Sun City", "state": "AZ", "postal_code": "85351", "latitude": 33.6396113, "longitude": -112.276124, "stars": 3.0, "review_count": 5, "is_open": 1, "attributes": {"RestaurantsDelivery": "False", "BusinessAcceptsCreditCards": "True", "RestaurantsGoodForGroups": "False", "GoodForKids": "False", "RestaurantsPriceRange2": "1", "RestaurantsReservations": "False"}, "categories": "Restaurants, Sandwiches, Fast Food", "hours": null}
{"business_id": "W9qZHec23yJRFf_R91o0TA", "name": "Vasireddy Rama MD", "address": "13000 N 103rd Ave, Ste 96", "city": "Sun City", "state": "AZ", "postal_code": "85351", "latitude": 33.6018498, "longitude": -112.2817124, "stars": 1.0, "review_count": 3, "is_open": 1, "attributes": {"ByAppointmentOnly": "True"}, "categories": "Internal Medicine, Doctors, Health & Medical", "hours": null}
{"business_id": "PNzir9TtJAD7U41GwR98-w", "name": "Line Thai Restaurant", "address": "9805 W Bell Rd", "city": "Sun City", "state": "AZ", "postal_code": "85351", "latitude": 33.637504, "longitude": -112.270825, "stars": 4.0, "review_count": 215, "is_open": 1, "attributes": {"BikeParking": "False", "BusinessAcceptsCreditCards": "True", "HasTV": "False", "OutdoorSeating": "False", "RestaurantsGoodForGroups": "True", "BusinessParking": "{'garage': False, 'street': False, 'validated': False, 'lot': True, 'valet': False}", "RestaurantsAttire": "u'casual'", "GoodForMeal": "{'dessert': False, 'latenight': False, 'lunch': True, 'dinner': True, 'brunch': False, 'breakfast': False}", "GoodForKids": "True", "WiFi": "u'no'", "RestaurantsPriceRange2": "2", "RestaurantsTakeOut": "True", "Alcohol": "u'beer_and_wine'", "RestaurantsDelivery": "False", "RestaurantsReservations": "False", "Ambience": "{'romantic': False, 'intimate': False, 'touristy': False, 'hipster': False, 'divey': False, 'classy': False, 'trendy': False, 'upscale': False, 'casual': True}", "Caters": "False", "NoiseLevel": "u'quiet'"}, "categories": "Restaurants, Thai", "hours": {"Monday": "17:0-21:0", "Tuesday": "17:0-21:0", "Wednesday": "17:0-21:0", "Thursday": "17:0-21:0", "Friday": "17:0-21:0", "Saturday": "11:0-21:0", "Sunday": "11:0-20:0"}}
{"business_id": "UL0FoeGT0marq0RG70G-YQ", "name": "Mustard Seed Herbary", "address": "12630 N 103rd Ave, Ste 131", "city": "Sun City", "state": "AZ", "postal_code": "85351", "latitude": 33.5987993, "longitude": -112.281922, "stars": 2.5, "review_count": 3, "is_open": 1, "attributes": {"BikeParking": "False", "BusinessAcceptsCreditCards": "True", "RestaurantsPriceRange2": "2", "RestaurantsTakeOut": "False", "Caters": "False", "BusinessAcceptsBitcoin": "False", "BusinessParking": "{'garage': False, 'street': False, 'validated': False, 'lot': True, 'valet': False}", "WheelchairAccessible": "False"}, "categories": "Health & Medical, Specialty Food, Food, Nutritionists, Health Coach, Health Markets", "hours": {"Tuesday": "10:0-14:0", "Wednesday": "10:0-14:0", "Thursday": "10:0-14:0", "Friday": "10:0-14:0", "Saturday": "10:0-14:0"}}
{"business_id": "zh_AIXt_wELJJLPfTmJcPw", "name": "The Happy -r-ise Flowers", "address": "12630 N 103rd Ave", "city": "Sun City", "state": "AZ", "postal_code": "85351", "latitude": 33.5988819, "longitude": -112.2816686, "stars": 3.0, "review_count": 4, "is_open": 0, "attributes": {"RestaurantsPriceRange2": "2", "BusinessAcceptsCreditCards": "True"}, "categories": "Arts & Crafts, Cards & Stationery, Event Planning & Services, Flowers & Gifts, Florists, Shopping", "hours": {"Monday": "7:0-19:0", "Tuesday": "7:0-19:0", "Wednesday": "7:0-19:0", "Thursday": "7:0-19:0", "Friday": "7:0-19:0", "Saturday": "7:0-19:0", "Sunday": "12:0-16:0"}}
{"business_id": "hZoIxNxron8LjWve8NIHoQ", "name": "Protect My Water", "address": "10001 W Bell Rd, Ste 102", "city": "Sun City", "state": "AZ", "postal_code": "85351", "latitude": 33.6372393, "longitude": -112.2754603, "stars": 4.5, "review_count": 6, "is_open": 1, "attributes": {"BusinessAcceptsCreditCards": "True", "BusinessAcceptsBitcoin": "False", "ByAppointmentOnly": "False"}, "categories": "Water Purification Services, Home Services, Plumbing", "hours": {"Monday": "9:0-16:0", "Tuesday": "9:0-16:0", "Wednesday": "9:0-16:0", "Thursday": "9:0-16:0", "Friday": "9:0-16:0"}}
{"business_id": "yOXa1_7QOMa7kquRby7zMA", "name": "Penny -Wise Thrift Shop", "address": "10050 W Bell Rd", "city": "Sun City", "state": "AZ", "postal_code": "85351", "latitude": 33.6396113, "longitude": -112.276124, "stars": 3.0, "review_count": 11, "is_open": 1, "attributes": {"RestaurantsPriceRange2": "1", "BikeParking": "True", "BusinessAcceptsCreditCards": "True", "BusinessParking": "{'garage': False, 'street': False, 'validated': False, 'lot': False, 'valet': False}"}, "categories": "Thrift Stores, Shopping", "hours": {"Monday": "8:30-17:0", "Tuesday": "8:30-17:0", "Wednesday": "8:30-17:0", "Thursday": "8:30-17:0", "Friday": "8:30-17:0", "Saturday": "8:30-17:0"}}
{"business_id": "aodZ-VnWrGd26yeLFKRieA", "name": "Vital Signs Bowling Proshop", "address": "10001 W Bell Rd, Ste 112", "city": "Sun City", "state": "AZ", "postal_code": "85351", "latitude": 33.637293, "longitude": -112.276666, "stars": 4.5, "review_count": 6, "is_open": 1, "attributes": {"BusinessParking": "{'garage': False, 'street': False, 'validated': False, 'lot': False, 'valet': False}", "BikeParking": "True", "BusinessAcceptsCreditCards": "True", "RestaurantsPriceRange2": "2", "WheelchairAccessible": "True"}, "categories": "Sports Wear, Bowling, Shopping, Active Life, Sporting Goods, Fashion", "hours": {"Monday": "10:0-17:0", "Tuesday": "9:0-14:30", "Wednesday": "9:0-17:0", "Thursday": "9:0-14:30", "Friday": "10:0-17:0", "Saturday": "11:0-16:0"}}
{"business_id": "RNkB4XsekPi5HPxT7vN2Dg", "name": "Sunland Memorial Park  Mortuary & Cremation Center", "address": "15826 Del Webb Blvd", "city": "Sun City", "state": "AZ", "postal_code": "85351", "latitude": 33.6283447, "longitude": -112.2893266, "stars": 4.0, "review_count": 5, "is_open": 1, "attributes": {"BusinessAcceptsCreditCards": "False"}, "categories": "Cremation Services, Mortuary Services, Funeral Services & Cemeteries, Local Services", "hours": {"Monday": "0:0-0:0", "Tuesday": "0:0-0:0", "Wednesday": "0:0-0:0", "Thursday": "0:0-0:0", "Friday": "0:0-0:0", "Saturday": "0:0-0:0", "Sunday": "0:0-0:0"}}
{"business_id": "RcXZAs0GU1_f-IulNtyuMw", "name": "Auction Ron Brunk", "address": "10109 Grand Ave", "city": "Sun City", "state": "AZ", "postal_code": "85351", "latitude": 33.598655, "longitude": -112.278378, "stars": 3.5, "review_count": 9, "is_open": 1, "attributes": {"BusinessAcceptsCreditCards": "True", "RestaurantsPriceRange2": "1", "BusinessParking": "{'garage': False, 'street': False, 'validated': False, 'lot': False, 'valet': False}", "ByAppointmentOnly": "False", "BikeParking": "True"}, "categories": "Antiques, Shopping, Auction Houses", "hours": {"Monday": "9:0-17:0", "Tuesday": "9:0-17:0", "Wednesday": "9:0-17:0", "Thursday": "9:0-17:0", "Friday": "9:0-17:0", "Saturday": "8:0-16:0"}}
{"business_id": "nsDDx67UwXJvbkNdoXHmIQ", "name": "PetSmart", "address": "13764 W Bell Rd", "city": "Sun City", "state": "AZ", "postal_code": "85374", "latitude": 33.6408149, "longitude": -112.3567117, "stars": 3.5, "review_count": 30, "is_open": 1, "attributes": null, "categories": "Pet Services, Pet Stores, Pet Groomers, Pet Training, Pets", "hours": {"Monday": "9:0-21:0", "Tuesday": "9:0-21:0", "Wednesday": "9:0-21:0", "Thursday": "9:0-21:0", "Friday": "9:0-21:0", "Saturday": "9:0-21:0", "Sunday": "9:0-19:0"}}
{"business_id": "FP1W3vmQDg9vk3IeWdSccA", "name": "Sun City Country Club", "address": "9433 N 107th Ave", "city": "Sun City", "state": "AZ", "postal_code": "85351", "latitude": 33.569445, "longitude": -112.286243, "stars": 4.0, "review_count": 9, "is_open": 1, "attributes": {"GoodForKids": "True", "BikeParking": "True", "BusinessParking": "{'garage': False, 'street': False, 'validated': False, 'lot': False, 'valet': False}"}, "categories": "Active Life, American (Traditional), Arts & Entertainment, Country Clubs, Golf, Restaurants", "hours": {"Monday": "6:0-17:0", "Tuesday": "6:0-17:0", "Wednesday": "6:0-17:0", "Thursday": "6:0-17:0", "Friday": "6:0-17:0", "Saturday": "6:0-17:0", "Sunday": "6:0-17:0"}}
{"business_id": "IP7CA2C8TMcBTv3DvWHWcg", "name": "Southwest Mobility", "address": "15458 N 99th Ave", "city": "Sun City", "state": "AZ", "postal_code": "85351", "latitude": 33.6237128, "longitude": -112.2711386, "stars": 4.0, "review_count": 7, "is_open": 1, "attributes": {"ByAppointmentOnly": "False"}, "categories": "Health & Medical, Automotive, Mobility Equipment Sales & Services, Medical Transportation", "hours": null}
{"business_id": "x2U_TzthfTvtyZ1_u36Z9w", "name": "Ester Tailoring", "address": "10001 W Bell Rd, Ste 122", "city": "Sun City", "state": "AZ", "postal_code": "85351", "latitude": 33.6372393, "longitude": -112.2754603, "stars": 4.5, "review_count": 9, "is_open": 1, "attributes": {"BusinessAcceptsCreditCards": "True"}, "categories": "Local Services, Sewing & Alterations", "hours": null}
{"business_id": "8JQ0lRrXIOtwZAMbfWuZVw", "name": "Sun City Pet Market", "address": "10050 W Bell Rd, Ste 45", "city": "Sun City", "state": "AZ", "postal_code": "85351", "latitude": 33.6397346, "longitude": -112.2764664, "stars": 4.5, "review_count": 12, "is_open": 1, "attributes": null, "categories": "Pet Stores, Pet Services, Pets", "hours": {"Monday": "9:0-18:0", "Tuesday": "9:0-18:0", "Wednesday": "9:0-18:0", "Thursday": "9:0-18:0", "Friday": "9:0-18:0", "Saturday": "9:0-17:0"}}
{"business_id": "ZuIKt9FNqd-DuKLsW0BO-A", "name": "Wow Cafe", "address": "10746 W Bell Rd", "city": "Sun City", "state": "AZ", "postal_code": "85351", "latitude": 33.6381301, "longitude": -112.291487, "stars": 3.5, "review_count": 4, "is_open": 0, "attributes": {"BusinessAcceptsCreditCards": "True", "OutdoorSeating": "False"}, "categories": "Cafes, Restaurants", "hours": {"Monday": "10:30-20:0", "Tuesday": "10:30-20:0", "Wednesday": "10:30-20:0", "Thursday": "10:30-20:0", "Friday": "10:30-20:0", "Saturday": "10:30-20:0"}}
{"business_id": "YoaUq0X4KlAmT7kQXhfgfw", "name": "Safeway Food & Drug", "address": "10641 W Olive Ave", "city": "Sun City", "state": "AZ", "postal_code": "85351", "latitude": 33.565217, "longitude": -112.2885493, "stars": 2.0, "review_count": 15, "is_open": 1, "attributes": {"BikeParking": "True", "BusinessParking": "{'garage': False, 'street': False, 'validated': False, 'lot': True, 'valet': False}", "RestaurantsPriceRange2": "2", "Caters": "False", "RestaurantsTakeOut": "True", "BusinessAcceptsCreditCards": "True"}, "categories": "Grocery, Food", "hours": null}
{"business_id": "W2Yln--3Yrrq4neTYfn7VA", "name": "Glamour Pets Grooming Salon", "address": "10001 W Bell Rd, Ste 152", "city": "Sun City", "state": "AZ", "postal_code": "85351", "latitude": 33.637239, "longitude": -112.275823, "stars": 5.0, "review_count": 18, "is_open": 1, "attributes": null, "categories": "Pet Groomers, Pet Services, Pets", "hours": {"Tuesday": "8:0-15:0", "Wednesday": "8:0-15:0", "Thursday": "8:0-15:0", "Friday": "8:0-15:0", "Saturday": "8:0-15:0"}}
{"business_id": "dKNohFodgYO2BZWXlw16gA", "name": "Mushkatel, Robbins & Becker", "address": "15249 N 99th Ave", "city": "Sun City", "state": "AZ", "postal_code": "85351", "latitude": 33.6218215, "longitude": -112.268533, "stars": 3.0, "review_count": 4, "is_open": 1, "attributes": {"ByAppointmentOnly": "False", "BusinessAcceptsCreditCards": "True"}, "categories": "Personal Injury Law, Lawyers, Professional Services, General Litigation, Estate Planning Law, Divorce & Family Law, Criminal Defense Law, Business Law, Real Estate Law", "hours": {"Monday": "8:0-17:0", "Tuesday": "8:0-17:0", "Wednesday": "8:0-17:0", "Thursday": "8:0-17:0", "Friday": "8:0-17:0"}}
{"business_id": "EqROoZJESfjvV6r03gPyCg", "name": "Sun Bowl Barber Shop", "address": "10631 W Peoria Ave", "city": "Sun City", "state": "AZ", "postal_code": "85351", "latitude": 33.5799622, "longitude": -112.2886155, "stars": 4.5, "review_count": 7, "is_open": 1, "attributes": {"ByAppointmentOnly": "False", "BikeParking": "True", "BusinessAcceptsCreditCards": "True", "RestaurantsPriceRange2": "1", "BusinessParking": "{'garage': False, 'street': False, 'validated': False, 'lot': True, 'valet': False}"}, "categories": "Beauty & Spas, Barbers", "hours": {"Monday": "8:0-16:30", "Tuesday": "8:0-16:30", "Thursday": "8:0-16:30", "Friday": "8:0-16:30", "Sunday": "8:0-14:0"}}
{"business_id": "YtzPLzD6lUROpOK4vI8Z-Q", "name": "China Olive Super Buffet", "address": "10415 W Grand Ave", "city": "Sun City", "state": "AZ", "postal_code": "85351", "latitude": 33.6007015, "longitude": -112.2835237, "stars": 2.0, "review_count": 25, "is_open": 0, "attributes": {"BikeParking": "True", "Ambience": "{'romantic': False, 'intimate': False, 'touristy': False, 'hipster': False, 'divey': False, 'classy': False, 'trendy': False, 'upscale': False, 'casual': True}", "HasTV": "True", "GoodForKids": "True", "RestaurantsReservations": "False", "BusinessAcceptsCreditCards": "True", "BusinessParking": "{'garage': False, 'street': False, 'validated': False, 'lot': True, 'valet': False}", "RestaurantsPriceRange2": "2", "WiFi": "u'no'", "Alcohol": "u'none'", "RestaurantsDelivery": "False", "RestaurantsTakeOut": "True", "RestaurantsGoodForGroups": "True", "Caters": "False", "OutdoorSeating": "False", "RestaurantsAttire": "u'casual'", "NoiseLevel": "u'average'"}, "categories": "Restaurants, Buffets", "hours": null}
{"business_id": "gNIOrQOIlrbw1GW3rwJLUA", "name": "Squeaky Clean Window Cleaning", "address": "", "city": "Sun City", "state": "AZ", "postal_code": "85373", "latitude": 33.6825711, "longitude": -112.3039728, "stars": 5.0, "review_count": 20, "is_open": 1, "attributes": {"ByAppointmentOnly": "False", "BusinessAcceptsCreditCards": "True"}, "categories": "Beauty & Spas, Window Washing, Glass & Mirrors, Pressure Washers, Home Services, Eyelash Service, Gutter Services", "hours": {"Monday": "0:0-0:0", "Tuesday": "7:0-18:0", "Wednesday": "7:0-18:0", "Thursday": "7:0-18:0", "Friday": "7:0-18:0"}}
{"business_id": "m0TPVaF2ZSXNUy6AuCdYVA", "name": "That Paralegal Place", "address": "10240 W Bell Rd, Ste E", "city": "Sun City", "state": "AZ", "postal_code": "85351", "latitude": 33.6381689387, "longitude": -112.2789493259, "stars": 2.0, "review_count": 5, "is_open": 1, "attributes": null, "categories": "Lawyers, Divorce & Family Law, Estate Planning Law, Real Estate Law, Professional Services", "hours": {"Monday": "8:0-17:0", "Tuesday": "8:0-17:0", "Wednesday": "8:0-17:0", "Thursday": "8:0-17:0", "Friday": "8:0-17:0"}}
{"business_id": "zeh8f9fXQtvsmQFXH2097A", "name": "Walman Eye Center - Sun City", "address": "10615 W Thunderbird Blvd, Ste D 180", "city": "Sun City", "state": "AZ", "postal_code": "85351", "latitude": 33.6047559, "longitude": -112.2880925, "stars": 5.0, "review_count": 3, "is_open": 1, "attributes": null, "categories": "Ophthalmologists, Optometrists, Laser Eye Surgery/Lasik, Health & Medical, Doctors", "hours": {"Tuesday": "8:0-16:0", "Wednesday": "8:0-16:0", "Thursday": "8:0-16:0", "Friday": "8:0-16:0"}}
{"business_id": "qURWZlrnr0ZVOtv94ghWPw", "name": "Helvig Health Clinic", "address": "10323 W Coggins Dr, Ste C", "city": "Sun City", "state": "AZ", "postal_code": "85351", "latitude": 33.5983199, "longitude": -112.2824749, "stars": 5.0, "review_count": 4, "is_open": 1, "attributes": {"ByAppointmentOnly": "True", "BusinessAcceptsCreditCards": "True"}, "categories": "Fitness & Instruction, Beauty & Spas, Active Life, Massage, Health & Medical, Nutritionists, Specialty Food, Health Markets, Chiropractors, Food", "hours": {"Monday": "8:30-15:0", "Tuesday": "8:30-13:0", "Wednesday": "8:30-15:0", "Thursday": "8:30-15:0", "Friday": "8:30-15:0"}}
{"business_id": "Pydv8bKHerfw8EYQf134Sw", "name": "Starbucks", "address": "10001 W. Bell Road, #101", "city": "Sun City", "state": "AZ", "postal_code": "85351", "latitude": 33.637858, "longitude": -112.276676, "stars": 4.0, "review_count": 17, "is_open": 1, "attributes": {"BikeParking": "True", "Caters": "False", "RestaurantsPriceRange2": "2", "WiFi": "u'free'", "RestaurantsTakeOut": "True", "BusinessAcceptsCreditCards": "True", "OutdoorSeating": "True", "BusinessParking": "{'garage': False, 'street': False, 'validated': False, 'lot': True, 'valet': False}"}, "categories": "Coffee & Tea, Food", "hours": {"Monday": "4:30-18:30", "Tuesday": "4:30-18:30", "Wednesday": "4:30-18:30", "Thursday": "4:30-19:0", "Friday": "4:0-19:0", "Saturday": "5:0-17:30", "Sunday": "4:30-18:30"}}
{"business_id": "y7KLIbp__zCgXT1BG3RkCQ", "name": "Northwest Valley Eyecare", "address": "10336 W Coggins Dr, Ste A", "city": "Sun City", "state": "AZ", "postal_code": "85351", "latitude": 33.5989835, "longitude": -112.2825624, "stars": 5.0, "review_count": 5, "is_open": 1, "attributes": {"BikeParking": "None", "BusinessAcceptsBitcoin": "False", "BusinessAcceptsCreditCards": "True", "RestaurantsPriceRange2": "2", "BusinessParking": "{'garage': False, 'street': False, 'validated': False, 'lot': True, 'valet': False}", "ByAppointmentOnly": "False"}, "categories": "Shopping, Optometrists, Laser Eye Surgery/Lasik, Health & Medical, Eyewear & Opticians", "hours": {"Monday": "8:0-17:0", "Tuesday": "8:0-17:0", "Wednesday": "8:0-17:0", "Thursday": "8:0-17:0", "Friday": "8:0-16:0"}}
{"business_id": "6LkGQwlEJNwF7TLfGqQbqw", "name": "Arizona Mobility Scooters", "address": "9420 W Bell Rd", "city": "Sun City", "state": "AZ", "postal_code": "85351", "latitude": 33.638553, "longitude": -112.262725, "stars": 3.0, "review_count": 4, "is_open": 1, "attributes": {"BusinessParking": "{'garage': False, 'street': False, 'validated': False, 'lot': False, 'valet': False}", "BikeParking": "True", "RestaurantsPriceRange2": "2", "BusinessAcceptsCreditCards": "True", "ByAppointmentOnly": "False", "WheelchairAccessible": "True"}, "categories": "Shopping, Automotive, Medical Supplies, Mobility Equipment Sales & Services", "hours": {"Monday": "0:0-0:0", "Wednesday": "9:0-15:0"}}
{"business_id": "kCv_VahcvVhrxhNvEtXocA", "name": "1st Classic Dental", "address": "13203 N 103rd Ave, Ste G1", "city": "Sun City", "state": "AZ", "postal_code": "85351", "latitude": 33.6041427, "longitude": -112.2799045, "stars": 3.5, "review_count": 13, "is_open": 1, "attributes": {"ByAppointmentOnly": "False", "BusinessAcceptsCreditCards": "True"}, "categories": "Periodontists, Dentists, Cosmetic Dentists, General Dentistry, Endodontists, Health & Medical, Pediatric Dentists", "hours": {"Monday": "8:0-17:0", "Tuesday": "8:0-17:0", "Wednesday": "8:0-17:0", "Thursday": "8:0-17:0", "Friday": "8:0-17:0"}}
{"business_id": "XieY4CeZOw9bMBk965BNTw", "name": "Bram Flooring", "address": "18700 N 107th Ave, Ste 25-27", "city": "Sun City", "state": "AZ", "postal_code": "85373", "latitude": 33.6531975, "longitude": -112.2912127, "stars": 4.5, "review_count": 11, "is_open": 1, "attributes": {"BusinessAcceptsCreditCards": "True"}, "categories": "Flooring, Carpeting, Home Services", "hours": {"Monday": "8:0-15:0", "Tuesday": "8:0-15:0", "Wednesday": "8:0-15:0", "Thursday": "8:0-15:0", "Friday": "8:0-15:0"}}
{"business_id": "YMscSJHfzmksd0p3S5gIKQ", "name": "Affordable Dentures", "address": "10918 W Bell Rd", "city": "Sun City", "state": "AZ", "postal_code": "85351", "latitude": 33.6391399, "longitude": -112.2922388, "stars": 3.0, "review_count": 7, "is_open": 1, "attributes": {"ByAppointmentOnly": "True", "BusinessAcceptsCreditCards": "True"}, "categories": "Dentists, Health & Medical", "hours": null}
{"business_id": "RRDlDsewHeqZOOWXGaEeig", "name": "Sun City Dental & Denture Center", "address": "10333 W Coggins Dr", "city": "Sun City", "state": "AZ", "postal_code": "85351", "latitude": 33.5985812, "longitude": -112.2828639, "stars": 5.0, "review_count": 3, "is_open": 1, "attributes": {"BusinessAcceptsCreditCards": "True", "ByAppointmentOnly": "True"}, "categories": "Dentists, Health & Medical, Cosmetic Dentists, General Dentistry", "hours": {"Monday": "8:0-16:0", "Tuesday": "8:0-16:0", "Wednesday": "8:0-15:0", "Thursday": "8:0-16:0"}}
{"business_id": "qHiL2L8_eb5gCIlv2Tkelw", "name": "Union Hills Country Club", "address": "9860 W Lindgren Ave", "city": "Sun City", "state": "AZ", "postal_code": "85373", "latitude": 33.648481, "longitude": -112.274157, "stars": 2.5, "review_count": 9, "is_open": 1, "attributes": {"GoodForKids": "False", "BikeParking": "True", "BusinessParking": "{'garage': False, 'street': False, 'validated': False, 'lot': False, 'valet': False}"}, "categories": "Event Planning & Services, Caterers, Golf, Country Clubs, Arts & Entertainment, Active Life", "hours": {"Monday": "6:30-16:30", "Tuesday": "6:30-16:30", "Wednesday": "17:0-21:0", "Thursday": "6:30-16:30", "Friday": "17:0-20:0", "Saturday": "6:30-16:30", "Sunday": "6:30-16:30"}}
{"business_id": "c3YaKWnkkOt7l5WPrX_YoA", "name": "Arizona Eye Institute & Cosmetic Laser Center", "address": "10701 W Bell Rd", "city": "Sun City", "state": "AZ", "postal_code": "85351", "latitude": 33.6377236953, "longitude": -112.2901835442, "stars": 4.5, "review_count": 13, "is_open": 1, "attributes": {"ByAppointmentOnly": "True", "AcceptsInsurance": "True"}, "categories": "Ophthalmologists, Cosmetic Surgeons, Health & Medical, Doctors, Optometrists, Laser Eye Surgery/Lasik", "hours": {"Monday": "8:0-17:0", "Tuesday": "8:0-17:0", "Wednesday": "8:0-17:0", "Thursday": "8:0-17:0", "Friday": "8:0-17:0"}}
{"business_id": "l--rgKRfH9m0jp4lBw6Z8g", "name": "Soroptimist Thrift Shop", "address": "10705 W Peoria Ave", "city": "Sun City", "state": "AZ", "postal_code": "85351", "latitude": 33.5800824, "longitude": -112.2902416, "stars": 4.0, "review_count": 4, "is_open": 0, "attributes": {"BusinessAcceptsCreditCards": "True", "BusinessParking": "{'garage': False, 'street': False, 'validated': False, 'lot': False, 'valet': False}", "RestaurantsPriceRange2": "1"}, "categories": "Shopping, Thrift Stores", "hours": null}
{"business_id": "k37Q9SambL1HADilIUl6xg", "name": "Bobbie's Cafe of Sun City", "address": "15472 N 99th Ave", "city": "Sun City", "state": "AZ", "postal_code": "85351", "latitude": 33.623873, "longitude": -112.270154, "stars": 3.0, "review_count": 46, "is_open": 1, "attributes": {"Caters": "True", "GoodForKids": "True", "RestaurantsGoodForGroups": "True", "RestaurantsDelivery": "False", "Alcohol": "u'none'", "BusinessParking": "{'garage': False, 'street': False, 'validated': False, 'lot': True, 'valet': False}", "RestaurantsTakeOut": "True", "Ambience": "{'romantic': False, 'intimate': False, 'touristy': False, 'hipster': False, 'divey': False, 'classy': False, 'trendy': False, 'upscale': False, 'casual': True}", "HasTV": "True", "NoiseLevel": "u'average'", "WiFi": "u'no'", "OutdoorSeating": "False", "BikeParking": "True", "RestaurantsAttire": "u'casual'", "BusinessAcceptsCreditCards": "True", "RestaurantsPriceRange2": "1", "RestaurantsReservations": "False"}, "categories": "Breakfast & Brunch, Restaurants, Diners", "hours": {"Monday": "6:0-20:0", "Tuesday": "6:0-20:0", "Wednesday": "6:0-20:0", "Thursday": "6:0-20:0", "Friday": "6:0-21:0", "Saturday": "6:0-21:0", "Sunday": "6:0-20:0"}}
{"business_id": "HccL2MM1OjeVCyFoPIf3lw", "name": "Sun City Mechanical", "address": "10240 W Bell Rd", "city": "Sun City", "state": "AZ", "postal_code": "85351", "latitude": 33.6386024, "longitude": -112.279828, "stars": 3.5, "review_count": 11, "is_open": 1, "attributes": {"BusinessAcceptsCreditCards": "True"}, "categories": "Heating & Air Conditioning/HVAC, Contractors, Home Services, Appliances & Repair, Plumbing, Air Duct Cleaning, Local Services", "hours": {"Monday": "9:0-17:0", "Tuesday": "9:0-17:0", "Wednesday": "9:0-17:0", "Thursday": "9:0-17:0", "Friday": "9:0-17:0"}}
{"business_id": "maKBahyKfjT-_2gc47fScA", "name": "Automotive Dynamics", "address": "9902 W Santa Fe Dr", "city": "Sun City", "state": "AZ", "postal_code": "85351", "latitude": 33.5989377, "longitude": -112.2720805, "stars": 4.5, "review_count": 8, "is_open": 1, "attributes": {"BusinessAcceptsCreditCards": "True"}, "categories": "Used Car Dealers, Oil Change Stations, Auto Repair, Automotive, Body Shops", "hours": {"Monday": "0:0-0:0", "Tuesday": "7:30-17:0", "Wednesday": "7:30-17:0", "Thursday": "7:30-17:0", "Friday": "7:30-17:0", "Saturday": "8:0-14:0"}}
{"business_id": "Gi2yw0ZFtJcUqiWCRP8NeQ", "name": "The Speakeasy", "address": "10745 NW Grand Ave, Ste 7", "city": "Sun City", "state": "AZ", "postal_code": "85351", "latitude": 33.6022099717, "longitude": -112.2917351872, "stars": 4.5, "review_count": 18, "is_open": 1, "attributes": {"BestNights": "{'monday': False, 'tuesday': False, 'friday': False, 'wednesday': False, 'thursday': False, 'sunday': False, 'saturday': False}", "BusinessAcceptsCreditCards": "True", "RestaurantsGoodForGroups": "True", "BikeParking": "True", "HappyHour": "True", "CoatCheck": "False", "RestaurantsReservations": "False", "GoodForDancing": "True", "BusinessParking": "{'garage': False, 'street': False, 'validated': False, 'lot': True, 'valet': False}", "WiFi": "'free'", "Ambience": "{'touristy': False, 'hipster': False, 'romantic': False, 'divey': False, 'intimate': False, 'trendy': False, 'upscale': False, 'classy': False, 'casual': False}", "Alcohol": "'full_bar'", "HasTV": "True", "OutdoorSeating": "False", "Music": "{'dj': False, 'background_music': False, 'no_music': False, 'jukebox': True, 'live': False, 'video': False, 'karaoke': False}", "RestaurantsPriceRange2": "1"}, "categories": "Bars, Nightlife, Speakeasies, Lounges", "hours": {"Monday": "8:0-2:0", "Tuesday": "8:0-2:0", "Wednesday": "8:0-2:0", "Thursday": "8:0-2:0", "Friday": "8:0-2:0", "Saturday": "8:0-2:0", "Sunday": "8:0-2:0"}}
{"business_id": "2A-x04zbGXcsWGJ-a_Qdyg", "name": "Zounds Hearing - Sun City", "address": "10732 W Bell Rd", "city": "Sun City", "state": "AZ", "postal_code": "85351", "latitude": 33.639424, "longitude": -112.291507, "stars": 2.5, "review_count": 3, "is_open": 1, "attributes": {"AcceptsInsurance": "True", "ByAppointmentOnly": "True", "BusinessAcceptsCreditCards": "True"}, "categories": "Hearing Aid Providers, Health & Medical", "hours": {"Monday": "0:0-0:0", "Tuesday": "9:0-17:0", "Wednesday": "9:0-17:0", "Thursday": "9:0-17:0", "Friday": "9:0-17:0"}}
{"business_id": "K2HuGDSFGXBrH86IYv4h6w", "name": "Jan & Dean Moving & Estate Sales", "address": "18700 N 107th Ave", "city": "Sun City", "state": "AZ", "postal_code": "85373", "latitude": 33.6531975, "longitude": -112.2912127, "stars": 1.0, "review_count": 3, "is_open": 1, "attributes": null, "categories": "Real Estate, Home Services, Estate Liquidation", "hours": null}
{"business_id": "jFDRrowIEIISk_Z2fjQvDA", "name": "Heather Westphal - State Farm Insurance Agent", "address": "17220 N Boswell Blvd, Ste 109W", "city": "Sun City", "state": "AZ", "postal_code": "85373", "latitude": 33.639498, "longitude": -112.278497, "stars": 4.0, "review_count": 4, "is_open": 1, "attributes": null, "categories": "Home & Rental Insurance, Auto Insurance, Insurance, Financial Services", "hours": {"Monday": "9:0-17:0", "Tuesday": "9:0-17:0", "Wednesday": "9:0-17:0", "Thursday": "9:0-17:0", "Friday": "9:0-17:0"}}
{"business_id": "gBsjgJXHD_UFez_IjkuO1Q", "name": "StainPro", "address": "", "city": "Sun City", "state": "AZ", "postal_code": "85372", "latitude": 33.6381822, "longitude": -112.2704757, "stars": 2.0, "review_count": 9, "is_open": 1, "attributes": {"BusinessAcceptsCreditCards": "True", "ByAppointmentOnly": "True"}, "categories": "Home Services, Carpet Cleaning, Grout Services, Tiling, Local Services, Home Cleaning", "hours": {"Monday": "8:0-18:0", "Tuesday": "8:0-18:0", "Wednesday": "8:0-18:0", "Thursday": "8:0-18:0", "Friday": "8:0-18:0"}}
{"business_id": "Z8Z2PSCkRQCFK19uHhSPyw", "name": "White Mountain Health Center", "address": "9420 W Bell Rd, Ste 108", "city": "Sun City", "state": "AZ", "postal_code": "85351", "latitude": 33.638553, "longitude": -112.262725, "stars": 4.5, "review_count": 24, "is_open": 1, "attributes": {"BusinessParking": "{'garage': False, 'street': False, 'validated': False, 'lot': False, 'valet': False}", "ByAppointmentOnly": "False", "AcceptsInsurance": "False", "RestaurantsPriceRange2": "2", "BikeParking": "False", "BusinessAcceptsCreditCards": "True"}, "categories": "Cannabis Dispensaries, Shopping, Drugstores, Health & Medical, Cannabis Clinics, Naturopathic/Holistic, Doctors", "hours": {"Monday": "7:0-22:0", "Tuesday": "7:0-22:0", "Wednesday": "7:0-22:0", "Thursday": "7:0-22:0", "Friday": "7:0-22:0", "Saturday": "7:0-22:0", "Sunday": "7:0-22:0"}}
{"business_id": "vZcdi-53UoevFrWDCRXZAw", "name": "Fry's Food Store", "address": "10660 NW Grand Ave", "city": "Sun City", "state": "AZ", "postal_code": "85374", "latitude": 33.6012352, "longitude": -112.28892, "stars": 2.0, "review_count": 4, "is_open": 1, "attributes": {"RestaurantsTakeOut": "False", "BusinessAcceptsCreditCards": "True", "RestaurantsPriceRange2": "1"}, "categories": "Food, Grocery", "hours": {"Monday": "8:0-17:0", "Tuesday": "8:0-17:0", "Wednesday": "8:0-17:0", "Thursday": "8:0-17:0", "Friday": "8:0-17:0", "Saturday": "8:0-12:0", "Sunday": "8:0-12:0"}}
{"business_id": "rC-1jxQaOmg2lJh5A__Xpw", "name": "Papa Murphy's", "address": "10659 Grand Ave, A12, A 12", "city": "Sun City", "state": "AZ", "postal_code": "85351", "latitude": 33.6009748, "longitude": -112.287967, "stars": 4.0, "review_count": 7, "is_open": 1, "attributes": {"RestaurantsDelivery": "False", "RestaurantsGoodForGroups": "False", "RestaurantsReservations": "False", "RestaurantsTakeOut": "True", "GoodForKids": "False", "RestaurantsAttire": "'casual'", "BikeParking": "False", "BusinessAcceptsCreditCards": "True", "HasTV": "False", "Ambience": "{'touristy': False, 'hipster': False, 'romantic': False, 'divey': False, 'intimate': False, 'trendy': False, 'upscale': False, 'classy': False, 'casual': False}", "WiFi": "'no'", "OutdoorSeating": "False", "RestaurantsPriceRange2": "2", "Alcohol": "'none'", "RestaurantsTableService": "False"}, "categories": "Pizza, Restaurants, Salad", "hours": {"Monday": "10:0-21:0", "Tuesday": "10:0-21:0", "Wednesday": "10:0-21:0", "Thursday": "10:0-21:0", "Friday": "10:0-21:0", "Saturday": "10:0-21:0", "Sunday": "10:0-21:0"}}
{"business_id": "JHV1PZfNsIkwPzX6Y95Vlw", "name": "The Book Trader", "address": "14806 N Del Webb Blvd", "city": "Sun City", "state": "AZ", "postal_code": "85301", "latitude": 33.619135, "longitude": -112.292377, "stars": 4.0, "review_count": 5, "is_open": 0, "attributes": {"RestaurantsPriceRange2": "1", "BusinessAcceptsCreditCards": "True", "BikeParking": "False", "BusinessParking": "None"}, "categories": "Shopping, Bookstores, Books, Mags, Music & Video", "hours": null}
{"business_id": "nKOSWfC8Pg-WCksCTVWVsg", "name": "Sunset Gyros", "address": "15462 N 99th Ave", "city": "Sun City", "state": "AZ", "postal_code": "85351", "latitude": 33.6237493, "longitude": -112.2707994, "stars": 4.0, "review_count": 8, "is_open": 1, "attributes": {"RestaurantsReservations": "False", "GoodForKids": "False", "RestaurantsTakeOut": "True", "RestaurantsGoodForGroups": "False", "GoodForMeal": "{'dessert': False, 'latenight': False, 'lunch': True, 'dinner': False, 'brunch': False, 'breakfast': False}", "RestaurantsDelivery": "False", "BusinessParking": "{'garage': False, 'street': False, 'validated': False, 'lot': False, 'valet': False}", "BusinessAcceptsCreditCards": "True", "OutdoorSeating": "True", "HasTV": "True", "RestaurantsAttire": "'casual'", "NoiseLevel": "u'quiet'", "BikeParking": "True", "Ambience": "{'touristy': False, 'hipster': False, 'romantic': False, 'divey': False, 'intimate': False, 'trendy': False, 'upscale': False, 'classy': False, 'casual': False}", "RestaurantsPriceRange2": "1"}, "categories": "Greek, Restaurants", "hours": null}
{"business_id": "2560z6_CDQ5HyJFXnTnvYw", "name": "Essential Eyecare", "address": "10659 Grand Ave, Ste 5", "city": "Sun City", "state": "AZ", "postal_code": "85351", "latitude": 33.6009748, "longitude": -112.287967, "stars": 3.5, "review_count": 5, "is_open": 1, "attributes": {"BusinessAcceptsCreditCards": "True", "AcceptsInsurance": "True", "RestaurantsPriceRange2": "2"}, "categories": "Shopping, Eyewear & Opticians, Health & Medical, Optometrists", "hours": {"Monday": "9:0-19:0", "Tuesday": "9:0-17:0", "Wednesday": "9:0-19:0", "Thursday": "9:0-17:0", "Friday": "9:0-17:0"}}
{"business_id": "METsIi1Fq0a421GxNyky_w", "name": "Chase Bank", "address": "10116 W Bell Rd", "city": "Sun City", "state": "AZ", "postal_code": "85351", "latitude": 33.638516, "longitude": -112.277419, "stars": 1.5, "review_count": 4, "is_open": 1, "attributes": null, "categories": "Banks & Credit Unions, Financial Services", "hours": {"Monday": "8:0-17:0", "Tuesday": "8:0-17:0", "Wednesday": "8:0-17:0", "Thursday": "8:0-17:0", "Friday": "8:0-17:0", "Saturday": "8:0-14:0"}}
{"business_id": "gLZDq33b27E7k4jRasZ6ag", "name": "Pawlor Pets", "address": "10752 W Bell Rd", "city": "Sun City", "state": "AZ", "postal_code": "85351", "latitude": 33.639359, "longitude": -112.292062, "stars": 4.0, "review_count": 8, "is_open": 1, "attributes": null, "categories": "Pets, Pet Groomers, Pet Services", "hours": null}
{"business_id": "kQAUenIV0_kJmQ8wEsGMeQ", "name": "Fresh Vitamins", "address": "9833 W Bell Rd", "city": "Sun City", "state": "AZ", "postal_code": "85351", "latitude": 33.6370554, "longitude": -112.2712914, "stars": 4.5, "review_count": 3, "is_open": 1, "attributes": {"RestaurantsPriceRange2": "2", "BusinessAcceptsCreditCards": "True"}, "categories": "Shopping, Vitamins & Supplements, Food, Health Markets, Specialty Food", "hours": {"Monday": "9:0-17:0", "Tuesday": "9:0-17:0", "Wednesday": "9:0-17:0", "Thursday": "9:0-17:0", "Friday": "9:0-17:0", "Saturday": "9:0-16:0"}}
{"business_id": "oFALZPTOsVuygCEUwUZ4PA", "name": "Lutheran Thrift Shop", "address": "10615 W Peoria Ave", "city": "Sun City", "state": "AZ", "postal_code": "85351", "latitude": 33.5791224, "longitude": -112.2886619, "stars": 4.0, "review_count": 11, "is_open": 1, "attributes": {"BusinessParking": "{'garage': False, 'street': False, 'validated': False, 'lot': False, 'valet': False}", "RestaurantsPriceRange2": "2"}, "categories": "Shopping, Thrift Stores", "hours": {"Monday": "8:30-16:0", "Tuesday": "8:30-16:0", "Wednesday": "8:30-16:0", "Thursday": "8:30-16:0", "Friday": "8:30-16:0", "Saturday": "8:30-16:0"}}
{"business_id": "ql2C_tB4iMZ-hUnVlBAuFQ", "name": "Sun City Health & Rehabilitation Center", "address": "9940 West Union Hills Dr", "city": "Sun City", "state": "AZ", "postal_code": "85373", "latitude": 33.6531798, "longitude": -112.2805573, "stars": 1.0, "review_count": 4, "is_open": 1, "attributes": null, "categories": "Neurologist, Orthopedists, Physical Therapy, Speech Therapists, Rehabilitation Center, Medical Centers, Doctors, Health & Medical", "hours": {"Monday": "0:0-0:0", "Tuesday": "0:0-0:0", "Wednesday": "0:0-0:0", "Thursday": "0:0-0:0", "Friday": "0:0-0:0", "Saturday": "0:0-0:0", "Sunday": "0:0-0:0"}}
{"business_id": "zjgglx9BWmpTcbjw0D2AGg", "name": "Tuesday Morning", "address": "10050 W Bell Rd", "city": "Sun City", "state": "AZ", "postal_code": "85351", "latitude": 33.6396113, "longitude": -112.276124, "stars": 2.5, "review_count": 3, "is_open": 1, "attributes": {"BusinessAcceptsCreditCards": "True", "RestaurantsPriceRange2": "1"}, "categories": "Flowers & Gifts, Shopping", "hours": null}
{"business_id": "c9lMjsf36YLY4PSuufTbdA", "name": "Easy Street Auto Sales", "address": "13211 N 111th Ave", "city": "Sun City", "state": "AZ", "postal_code": "85351", "latitude": 33.604083, "longitude": -112.2982447, "stars": 3.5, "review_count": 3, "is_open": 1, "attributes": null, "categories": "Car Dealers, Automotive", "hours": {"Monday": "8:0-18:0", "Tuesday": "8:0-18:0", "Wednesday": "8:0-18:0", "Thursday": "8:0-18:0", "Friday": "8:0-16:0", "Saturday": "8:0-16:0"}}
{"business_id": "3uxkAUiXI1k3H3l1GYhwXA", "name": "Uhrik Otto Dr", "address": "10228 W Coggins Dr", "city": "Sun City", "state": "AZ", "postal_code": "85351", "latitude": 33.5987397, "longitude": -112.2804783, "stars": 4.0, "review_count": 4, "is_open": 1, "attributes": {"ByAppointmentOnly": "True", "AcceptsInsurance": "True"}, "categories": "Doctors, Health & Medical", "hours": null}
{"business_id": "PnsHeKcNjaJ5KKhcG579iQ", "name": "Big O Tires", "address": "17039 Boswell Blvd", "city": "Sun City", "state": "AZ", "postal_code": "85373", "latitude": 33.6394736, "longitude": -112.2777469, "stars": 2.5, "review_count": 7, "is_open": 1, "attributes": {"BusinessAcceptsCreditCards": "True"}, "categories": "Oil Change Stations, Auto Repair, Automotive, Tires", "hours": null}
{"business_id": "NdC0gPQe8HBSBQYRieukGw", "name": "Fix Auto Sun City", "address": "10222 W Santa Fe Dr", "city": "Sun City", "state": "AZ", "postal_code": "85351", "latitude": 33.6006413, "longitude": -112.2791308, "stars": 4.5, "review_count": 14, "is_open": 1, "attributes": {"BusinessAcceptsCreditCards": "True"}, "categories": "Car Dealers, Towing, Auto Repair, Body Shops, Automotive", "hours": {"Monday": "0:0-0:0", "Tuesday": "8:0-17:0", "Wednesday": "8:0-17:0", "Thursday": "8:0-17:0", "Friday": "8:0-17:0"}}
{"business_id": "E7KqKGbKyPeZPLoURV4Nmw", "name": "U.S. Bank", "address": "9899 W Bell Rd", "city": "Sun City", "state": "AZ", "postal_code": "85351", "latitude": 33.637113, "longitude": -112.273354, "stars": 3.5, "review_count": 5, "is_open": 1, "attributes": null, "categories": "Financial Services, Banks & Credit Unions", "hours": {"Monday": "8:30-16:30", "Tuesday": "8:30-16:30", "Wednesday": "8:30-16:30", "Thursday": "8:30-16:30", "Friday": "8:30-16:30", "Saturday": "8:30-16:30"}}
{"business_id": "f9erPXk9t2UtciLqjuzdpA", "name": "Big O Tire Stores", "address": "17039 N Boswell Blvd", "city": "Sun City", "state": "AZ", "postal_code": "85373", "latitude": 33.6394736, "longitude": -112.2777469, "stars": 3.0, "review_count": 4, "is_open": 1, "attributes": {"BusinessAcceptsCreditCards": "True"}, "categories": "Automotive, Tires", "hours": null}
{"business_id": "vae0jeU5cEMQJSOKOKaYNQ", "name": "Spectra Eye Institute", "address": "9849 W Thunderbird Blvd", "city": "Sun City", "state": "AZ", "postal_code": "85351", "latitude": 33.608909, "longitude": -112.267419, "stars": 3.0, "review_count": 13, "is_open": 1, "attributes": {"ByAppointmentOnly": "True"}, "categories": "Hospitals, Doctors, Ophthalmologists, Health & Medical", "hours": {"Monday": "6:0-19:30", "Tuesday": "6:0-19:30", "Wednesday": "6:0-19:30", "Thursday": "6:0-19:30", "Friday": "6:0-17:30"}}
{"business_id": "T_FK6A8EbYRenvPUHzwaFA", "name": "A4dable Appliance Repair", "address": "", "city": "Sun City", "state": "AZ", "postal_code": "85373", "latitude": 33.6825711, "longitude": -112.3039728, "stars": 1.0, "review_count": 6, "is_open": 1, "attributes": {"BusinessAcceptsCreditCards": "False"}, "categories": "Professional Services, Local Services, Appliances & Repair, Home Services", "hours": {"Monday": "9:0-18:0", "Tuesday": "9:0-18:0", "Wednesday": "9:0-18:0", "Thursday": "9:0-18:0", "Friday": "9:0-18:0", "Saturday": "9:0-18:0", "Sunday": "9:0-18:0"}}
{"business_id": "Dmmt1jbTMVlEDKOsp0-8Gg", "name": "Moore Audiology & Hearing Aid Center", "address": "14814 N Del Webb Blvd", "city": "Sun City", "state": "AZ", "postal_code": "85351", "latitude": 33.6192154, "longitude": -112.2922248, "stars": 3.5, "review_count": 3, "is_open": 1, "attributes": {"ByAppointmentOnly": "True", "AcceptsInsurance": "True"}, "categories": "Doctors, Audiologist, Health & Medical, Hearing Aid Providers", "hours": {"Monday": "8:0-16:30", "Tuesday": "8:0-16:30", "Wednesday": "8:0-16:30", "Thursday": "8:0-16:30", "Friday": "8:0-16:30"}}
{"business_id": "Oldo2Cqxdzo776xzKkIABw", "name": "Bell Air Conditioning", "address": "18700 N 107th Ave, Ste 30", "city": "Sun City", "state": "AZ", "postal_code": "85373", "latitude": 33.6532536, "longitude": -112.2911901, "stars": 5.0, "review_count": 57, "is_open": 1, "attributes": {"BusinessAcceptsCreditCards": "True", "ByAppointmentOnly": "True"}, "categories": "Heating & Air Conditioning/HVAC, Contractors, Home Services", "hours": {"Monday": "6:0-22:30", "Tuesday": "6:0-22:30", "Wednesday": "6:0-22:30", "Thursday": "6:0-22:30", "Friday": "6:0-22:30", "Saturday": "6:0-22:30", "Sunday": "6:0-22:30"}}
{"business_id": "G2QRj7iY7lA-6A3qyE1flA", "name": "Associated Appliance Sales", "address": "10924 W Bell Rd, Ste 2", "city": "Sun City", "state": "AZ", "postal_code": "85351", "latitude": 33.6389979662, "longitude": -112.2922491655, "stars": 5.0, "review_count": 3, "is_open": 1, "attributes": {"BusinessAcceptsCreditCards": "True", "RestaurantsPriceRange2": "2"}, "categories": "Appliances & Repair, Local Services, Appliances, Shopping, Home & Garden", "hours": {"Monday": "9:0-17:0", "Tuesday": "9:0-17:0", "Wednesday": "9:0-17:0", "Thursday": "9:0-17:0", "Friday": "9:0-17:0", "Saturday": "9:0-15:0"}}
{"business_id": "ivedX47fF-Ai_I8QK9eEcw", "name": "Sun City Bargain Storage", "address": "18900 N 107th Ave", "city": "Sun City", "state": "AZ", "postal_code": "85373", "latitude": 33.6547393131, "longitude": -112.29013179, "stars": 5.0, "review_count": 11, "is_open": 1, "attributes": {"BusinessAcceptsCreditCards": "True"}, "categories": "Self Storage, Local Services", "hours": {"Monday": "8:0-17:0", "Tuesday": "8:0-17:0", "Wednesday": "8:0-17:0", "Thursday": "8:0-17:0", "Friday": "8:0-17:0", "Saturday": "8:0-17:0"}}
{"business_id": "9MbdW65BluR94Bgg8Vdqfg", "name": "Ace Hardware", "address": "10050 W Bell Rd", "city": "Sun City", "state": "AZ", "postal_code": "85351", "latitude": 33.6396113, "longitude": -112.276124, "stars": 3.0, "review_count": 8, "is_open": 1, "attributes": {"BusinessParking": "None", "WheelchairAccessible": "True", "RestaurantsPriceRange2": "2", "BusinessAcceptsCreditCards": "True", "BikeParking": "True", "DogsAllowed": "True"}, "categories": "Home & Garden, Shopping, Hardware Stores", "hours": {"Monday": "8:0-17:30", "Tuesday": "8:0-17:30", "Wednesday": "8:0-17:30", "Thursday": "8:0-17:30", "Friday": "8:0-17:30", "Saturday": "8:0-17:30", "Sunday": "9:0-16:0"}}
{"business_id": "c_PnGUKAlvmkZnSTxRsjZQ", "name": "AP Nails", "address": "10050 W Bell Rd, Ste 26", "city": "Sun City", "state": "AZ", "postal_code": "85351", "latitude": 33.6396113, "longitude": -112.276124, "stars": 4.5, "review_count": 14, "is_open": 1, "attributes": {"ByAppointmentOnly": "False", "BusinessAcceptsCreditCards": "True", "RestaurantsPriceRange2": "2", "BikeParking": "True", "BusinessParking": "{'garage': False, 'street': False, 'validated': False, 'lot': False, 'valet': False}", "WheelchairAccessible": "True"}, "categories": "Beauty & Spas, Nail Salons", "hours": {"Monday": "0:0-0:0", "Tuesday": "9:0-18:0", "Wednesday": "9:0-18:0", "Thursday": "9:0-18:0", "Friday": "9:0-18:0", "Saturday": "9:0-17:0"}}
{"business_id": "gRsMPQ8T44cEg2jnvS3omg", "name": "Benny's Burgers & BBQ", "address": "10001 W Bell Rd", "city": "Sun City", "state": "AZ", "postal_code": "85351", "latitude": 33.6372393, "longitude": -112.2754603, "stars": 4.5, "review_count": 147, "is_open": 1, "attributes": {"GoodForKids": "True", "RestaurantsReservations": "False", "BikeParking": "True", "RestaurantsAttire": "u'casual'", "WiFi": "u'free'", "BusinessParking": "{'garage': False, 'street': False, 'validated': False, 'lot': True, 'valet': False}", "Ambience": "{'romantic': False, 'intimate': False, 'classy': False, 'hipster': False, 'divey': False, 'touristy': False, 'trendy': False, 'upscale': False, 'casual': True}", "Alcohol": "u'none'", "OutdoorSeating": "True", "GoodForMeal": "{'dessert': False, 'latenight': False, 'lunch': True, 'dinner': True, 'brunch': False, 'breakfast': False}", "RestaurantsDelivery": "False", "Caters": "True", "DriveThru": "False", "HasTV": "True", "RestaurantsGoodForGroups": "True", "NoiseLevel": "u'average'", "RestaurantsTakeOut": "True", "BusinessAcceptsCreditCards": "True", "RestaurantsTableService": "False", "RestaurantsPriceRange2": "1"}, "categories": "Hot Dogs, American (Traditional), Restaurants, Barbeque, Burgers", "hours": {"Monday": "0:0-0:0", "Tuesday": "10:30-17:0", "Wednesday": "10:30-20:0", "Thursday": "10:30-20:0", "Friday": "10:30-20:0", "Saturday": "10:30-20:0", "Sunday": "11:0-18:0"}}
{"business_id": "q27-Sh7VJLPI24tGxE35PQ", "name": "Sterling Skin & Style", "address": "12630 N 103rd Ave, Ste 113", "city": "Sun City", "state": "AZ", "postal_code": "85351", "latitude": 33.598598422, "longitude": -112.281399475, "stars": 5.0, "review_count": 4, "is_open": 1, "attributes": {"BusinessAcceptsCreditCards": "True", "ByAppointmentOnly": "True", "HairSpecializesIn": "{'straightperms': False, 'coloring': True, 'extensions': True, 'africanamerican': True, 'curly': True, 'kids': False, 'perms': False, 'asian': True}", "RestaurantsPriceRange2": "2", "BusinessAcceptsBitcoin": "False", "BusinessParking": "{'garage': False, 'street': False, 'validated': False, 'lot': True, 'valet': False}", "WheelchairAccessible": "True", "BikeParking": "True"}, "categories": "Hair Stylists, Beauty & Spas, Skin Care, Hair Removal, Hair Salons, Eyelash Service, Waxing", "hours": {"Monday": "0:0-0:0", "Tuesday": "7:0-19:0", "Wednesday": "7:0-19:0", "Thursday": "7:0-19:0", "Friday": "14:30-15:0", "Saturday": "7:0-19:0"}}
{"business_id": "c2yjTFQZnCeuBMdGFWDtmA", "name": "That Window Washing Guy", "address": "10839 W Harmony Ln", "city": "Sun City", "state": "AZ", "postal_code": "85373", "latitude": 33.6749439, "longitude": -112.2935179, "stars": 5.0, "review_count": 4, "is_open": 1, "attributes": {"ByAppointmentOnly": "True", "BusinessAcceptsCreditCards": "True"}, "categories": "Home Services, Window Washing", "hours": null}
{"business_id": "GGF7Ov16JXcfGXna6BWSPg", "name": "McDonald's", "address": "10040 W Bell Rd", "city": "Sun City", "state": "AZ", "postal_code": "85373", "latitude": 33.6385443751, "longitude": -112.276917994, "stars": 2.5, "review_count": 16, "is_open": 1, "attributes": {"HasTV": "False", "RestaurantsPriceRange2": "1", "RestaurantsDelivery": "False", "GoodForKids": "True", "Ambience": "{'touristy': False, 'hipster': False, 'romantic': False, 'divey': False, 'intimate': False, 'trendy': False, 'upscale': False, 'classy': False, 'casual': False}", "RestaurantsGoodForGroups": "True", "BusinessAcceptsCreditCards": "True", "RestaurantsAttire": "'casual'", "WiFi": "u'free'", "RestaurantsReservations": "False", "OutdoorSeating": "False", "RestaurantsTableService": "False", "GoodForMeal": "{'dessert': False, 'latenight': False, 'lunch': False, 'dinner': False, 'brunch': False, 'breakfast': True}", "RestaurantsTakeOut": "True", "Alcohol": "u'none'", "BikeParking": "True", "BusinessParking": "{'garage': False, 'street': False, 'validated': False, 'lot': False, 'valet': False}", "DriveThru": "True", "NoiseLevel": "'average'", "Caters": "False"}, "categories": "Burgers, Fast Food, Coffee & Tea, Restaurants, Food", "hours": {"Monday": "4:0-0:0", "Tuesday": "4:0-0:0", "Wednesday": "4:0-0:0", "Thursday": "4:0-0:0", "Friday": "4:0-1:0", "Saturday": "4:0-1:0", "Sunday": "4:0-0:0"}}
{"business_id": "R9CZGgc1BBU9loBm2OORqw", "name": "Saguaro Motor", "address": "10328 W Coggins Dr, Ste 5", "city": "Sun City", "state": "AZ", "postal_code": "85351", "latitude": 33.5990102, "longitude": -112.2823706, "stars": 1.0, "review_count": 3, "is_open": 0, "attributes": {"BusinessAcceptsCreditCards": "False"}, "categories": "RV Dealers, Car Dealers, Automotive", "hours": {"Monday": "9:0-17:0", "Tuesday": "9:0-17:0", "Wednesday": "9:0-17:0", "Thursday": "9:0-17:0", "Friday": "9:0-17:0"}}
{"business_id": "5aJzWZYjDJqg7NCruv6f4w", "name": "Starbucks", "address": "10701 W. Grand Ave", "city": "Sun City", "state": "AZ", "postal_code": "85351", "latitude": 33.602374, "longitude": -112.290259, "stars": 3.5, "review_count": 12, "is_open": 1, "attributes": {"RestaurantsTakeOut": "True", "BusinessParking": "{'garage': False, 'street': False, 'validated': False, 'lot': True, 'valet': False}", "RestaurantsGoodForGroups": "True", "GoodForKids": "True", "OutdoorSeating": "True", "BikeParking": "True", "RestaurantsPriceRange2": "2", "Caters": "False", "RestaurantsReservations": "False", "BusinessAcceptsCreditCards": "True", "RestaurantsDelivery": "False", "WiFi": "'free'"}, "categories": "Food, Coffee & Tea, Breakfast & Brunch, Coffee Roasteries, Restaurants, Sandwiches", "hours": {"Monday": "4:0-21:30", "Tuesday": "4:0-21:30", "Wednesday": "4:0-21:30", "Thursday": "4:0-21:30", "Friday": "4:0-21:30", "Saturday": "5:0-21:0", "Sunday": "4:0-21:30"}}
{"business_id": "dtYHbbLCR9awNR0bKwwcXQ", "name": "JJ's Barber Shop", "address": "18700 N 107th Ave, Ste 29", "city": "Sun City", "state": "AZ", "postal_code": "85373", "latitude": 33.6531975, "longitude": -112.2912127, "stars": 4.5, "review_count": 15, "is_open": 1, "attributes": {"ByAppointmentOnly": "False", "BusinessAcceptsCreditCards": "False", "RestaurantsPriceRange2": "1", "BikeParking": "True", "BusinessParking": "{'garage': False, 'street': True, 'validated': False, 'lot': False, 'valet': False}"}, "categories": "Beauty & Spas, Barbers", "hours": {"Monday": "6:0-16:0", "Tuesday": "6:0-16:0", "Wednesday": "6:0-16:0", "Thursday": "6:0-16:0", "Friday": "6:0-16:0", "Saturday": "6:0-14:0"}}
{"business_id": "B4SCBw85earo2Qp7ZpsYGQ", "name": "Sun City Alterations", "address": "15436 N 99th Ave", "city": "Sun City", "state": "AZ", "postal_code": "85351", "latitude": 33.62286, "longitude": -112.271183, "stars": 4.5, "review_count": 7, "is_open": 1, "attributes": {"BusinessAcceptsCreditCards": "False"}, "categories": "Local Services, Sewing & Alterations", "hours": {"Monday": "0:0-0:0", "Tuesday": "8:30-16:0", "Wednesday": "8:30-16:0", "Thursday": "8:30-16:0", "Friday": "8:30-16:0", "Saturday": "8:30-12:0"}}
{"business_id": "TMIY0cSlmEcdwtJFe5pZOg", "name": "Arizona Art Supply", "address": "10659 Grand Ave", "city": "Sun City", "state": "AZ", "postal_code": "85351", "latitude": 33.600696, "longitude": -112.288162, "stars": 4.0, "review_count": 8, "is_open": 1, "attributes": {"BusinessAcceptsCreditCards": "True", "BusinessParking": "None", "RestaurantsPriceRange2": "3"}, "categories": "Art Supplies, Shopping, Arts & Crafts", "hours": {"Monday": "9:0-17:0", "Tuesday": "9:0-17:0", "Wednesday": "9:0-17:0", "Thursday": "9:0-17:0", "Friday": "9:0-17:0", "Saturday": "9:0-17:0"}}
{"business_id": "uX36hsDAEFnnfFpMYgO7_g", "name": "Valley Respiratory Services", "address": "13203 N 103rd Ave, Ste H-2", "city": "Sun City", "state": "AZ", "postal_code": "85351", "latitude": 33.6041427, "longitude": -112.2799045, "stars": 2.5, "review_count": 5, "is_open": 1, "attributes": {"RestaurantsPriceRange2": "4", "BusinessParking": "{'garage': False, 'street': False, 'validated': False, 'lot': False, 'valet': False}", "BusinessAcceptsCreditCards": "True"}, "categories": "Shopping, Medical Supplies", "hours": {"Monday": "9:0-17:0", "Tuesday": "9:0-17:0", "Wednesday": "9:0-17:0", "Thursday": "9:0-17:0", "Friday": "9:0-17:0"}}
{"business_id": "eu9G0ykFJkfWQLgPTYcLjA", "name": "Regency Mortuary", "address": "9850 W Thunderbird Blvd", "city": "Sun City", "state": "AZ", "postal_code": "85351", "latitude": 33.6098412, "longitude": -112.2673222, "stars": 3.0, "review_count": 10, "is_open": 1, "attributes": {"BusinessAcceptsCreditCards": "True"}, "categories": "Funeral Services & Cemeteries, Local Services", "hours": {"Monday": "0:0-0:0", "Tuesday": "8:30-16:30", "Wednesday": "8:30-16:30", "Thursday": "8:30-16:30", "Friday": "8:30-17:0", "Saturday": "8:30-13:0"}}
{"business_id": "d5rnf3xqaYjEtv9uIJSzpg", "name": "Anita Dai -  Integrative Weight Loss", "address": "10404 W Coggins Dr, Ste 118", "city": "Sun City", "state": "AZ", "postal_code": "85351", "latitude": 33.5993155, "longitude": -112.2825972, "stars": 4.5, "review_count": 6, "is_open": 1, "attributes": {"BusinessAcceptsCreditCards": "True", "ByAppointmentOnly": "False", "AcceptsInsurance": "True"}, "categories": "Doctors, Internal Medicine, Weight Loss Centers, Health & Medical", "hours": {"Monday": "7:30-17:0", "Tuesday": "7:30-17:0", "Wednesday": "7:30-17:0", "Thursday": "7:30-17:0", "Friday": "7:30-14:0"}}
{"business_id": "lmfgaDVLUeLV5bVXadrlBA", "name": "Diamond Jim's", "address": "10001 W Bell Rd, Ste 127", "city": "Sun City", "state": "AZ", "postal_code": "85351", "latitude": 33.637239, "longitude": -112.275823, "stars": 3.0, "review_count": 6, "is_open": 1, "attributes": {"BusinessParking": "{'garage': False, 'street': False, 'validated': False, 'lot': True, 'valet': False}", "BikeParking": "True", "BusinessAcceptsCreditCards": "True", "ByAppointmentOnly": "False", "RestaurantsPriceRange2": "1"}, "categories": "Watches, Jewelry Repair, Local Services, Jewelry, Shopping", "hours": {"Monday": "0:0-0:0", "Tuesday": "9:30-16:0", "Wednesday": "9:30-16:0", "Thursday": "9:30-16:0", "Friday": "9:30-16:0", "Saturday": "9:30-15:0", "Sunday": "11:30-15:0"}}
{"business_id": "J28IfhgxZt8tcl61n_DY-w", "name": "Surprise Bicycles", "address": "12875 W Bell Rd", "city": "Sun City", "state": "AZ", "postal_code": "85374", "latitude": 33.6377891891, "longitude": -112.3750033228, "stars": 1.0, "review_count": 3, "is_open": 0, "attributes": {"BusinessAcceptsCreditCards": "True", "BusinessParking": "{'garage': False, 'street': False, 'validated': False, 'lot': True, 'valet': False}", "RestaurantsPriceRange2": "3"}, "categories": "Shopping, Sporting Goods, Bikes", "hours": null}
{"business_id": "mzIAa8V_ec4yGpIfFaXSOg", "name": "Monty's Furniture", "address": "10785 Grand Ave", "city": "Sun City", "state": "AZ", "postal_code": "85351", "latitude": 33.6019181, "longitude": -112.2927379, "stars": 4.0, "review_count": 12, "is_open": 1, "attributes": {"RestaurantsPriceRange2": "2", "BikeParking": "False", "BusinessParking": "{'garage': False, 'street': False, 'validated': False, 'lot': True, 'valet': False}", "BusinessAcceptsCreditCards": "True"}, "categories": "Shopping, Furniture Stores, Home & Garden", "hours": {"Monday": "0:0-0:0", "Tuesday": "9:0-17:0", "Wednesday": "9:0-17:0", "Thursday": "9:0-17:0", "Friday": "9:0-17:0", "Saturday": "9:0-15:0"}}
{"business_id": "xQLM61JeKbYb1V1lDyvgIw", "name": "Sun City Pet Lodge", "address": "10026 W Santa Fe Dr", "city": "Sun City", "state": "AZ", "postal_code": "85351", "latitude": 33.5994237, "longitude": -112.274965, "stars": 3.5, "review_count": 3, "is_open": 1, "attributes": null, "categories": "Pet Sitting, Pet Services, Pets", "hours": null}
{"business_id": "WqVYEK9a7RQatKYPRHw46Q", "name": "Diamonds In the Ruff", "address": "9022 N 103rd Ave", "city": "Sun City", "state": "AZ", "postal_code": "85351", "latitude": 33.566705, "longitude": -112.281574, "stars": 4.0, "review_count": 10, "is_open": 1, "attributes": null, "categories": "Pet Stores, Pets, Pet Services, Pet Groomers", "hours": {"Monday": "0:0-0:0", "Tuesday": "8:0-14:0", "Wednesday": "8:0-15:0", "Thursday": "8:0-15:0", "Friday": "8:0-15:0", "Saturday": "8:0-15:0"}}
{"business_id": "HuBJiQWZ3C8PcZZz9kLPeA", "name": "Coldwell Banker Residential Brokerage", "address": "9949 W Bell Rd, Ste 101", "city": "Sun City", "state": "AZ", "postal_code": "85351", "latitude": 33.6375723, "longitude": -112.2752392, "stars": 3.0, "review_count": 4, "is_open": 1, "attributes": {"BusinessAcceptsCreditCards": "False", "ByAppointmentOnly": "True"}, "categories": "Real Estate Agents, Real Estate Services, Real Estate, Home Services", "hours": null}
{"business_id": "Xb7jOAa17xtT_uA4sCCAsg", "name": "Memo's Bistro", "address": "16820 N 99th Ave", "city": "Sun City", "state": "AZ", "postal_code": "85351", "latitude": 33.635323, "longitude": -112.27539, "stars": 4.0, "review_count": 11, "is_open": 1, "attributes": {"GoodForMeal": "{'dessert': False, 'latenight': False, 'lunch': True, 'dinner': False, 'brunch': False, 'breakfast': True}", "BikeParking": "True", "RestaurantsPriceRange2": "2", "BusinessParking": "{'garage': False, 'street': False, 'validated': False, 'lot': True, 'valet': False}", "RestaurantsDelivery": "False", "GoodForKids": "True", "Ambience": "{'romantic': False, 'intimate': False, 'classy': False, 'hipster': False, 'divey': False, 'touristy': False, 'trendy': False, 'upscale': False, 'casual': True}", "RestaurantsTakeOut": "True", "NoiseLevel": "u'average'", "RestaurantsAttire": "u'casual'", "RestaurantsReservations": "True", "OutdoorSeating": "False", "BusinessAcceptsCreditCards": "True", "RestaurantsGoodForGroups": "True", "WiFi": "u'free'", "HasTV": "True", "Caters": "True"}, "categories": "Restaurants, Diners", "hours": null}
{"business_id": "1dQqNZOjsXRx-UgJD0dpRg", "name": "Don Jose's", "address": "9881 W Bell Rd", "city": "Sun City", "state": "AZ", "postal_code": "85351", "latitude": 33.6375904686, "longitude": -112.2722953138, "stars": 4.0, "review_count": 56, "is_open": 1, "attributes": {"RestaurantsGoodForGroups": "True", "RestaurantsReservations": "False", "BusinessAcceptsCreditCards": "True", "BikeParking": "True", "Alcohol": "u'beer_and_wine'", "OutdoorSeating": "False", "RestaurantsPriceRange2": "1", "GoodForKids": "True", "HasTV": "True", "RestaurantsTakeOut": "True", "Caters": "False", "BusinessParking": "{'garage': False, 'street': False, 'validated': False, 'lot': True, 'valet': False}", "RestaurantsAttire": "u'casual'", "RestaurantsDelivery": "False", "Ambience": "{'touristy': False, 'hipster': False, 'romantic': False, 'divey': False, 'intimate': False, 'trendy': False, 'upscale': False, 'classy': False, 'casual': True}", "WiFi": "u'no'", "GoodForMeal": "{'dessert': False, 'latenight': False, 'lunch': True, 'dinner': True, 'brunch': False, 'breakfast': False}", "NoiseLevel": "u'quiet'"}, "categories": "Mexican, Restaurants", "hours": null}
{"business_id": "S8rvy-r9hJXeIuEmSE1ofg", "name": "SunWest Dental", "address": "13000 N 103rd Ave, Ste 85", "city": "Sun City", "state": "AZ", "postal_code": "85351", "latitude": 33.6018498, "longitude": -112.2817124, "stars": 3.5, "review_count": 3, "is_open": 1, "attributes": {"ByAppointmentOnly": "False"}, "categories": "Cosmetic Dentists, General Dentistry, Dentists, Beauty & Spas, Health & Medical, Teeth Whitening", "hours": {"Monday": "8:0-17:0", "Tuesday": "8:0-17:0", "Wednesday": "8:0-17:0", "Thursday": "8:0-17:0"}}
{"business_id": "QCbXsZy2mfDvaCyGzPojfw", "name": "Becker Mathis Atty", "address": "15249 N 99th Ave", "city": "Sun City", "state": "AZ", "postal_code": "85351", "latitude": 33.6218215, "longitude": -112.268533, "stars": 1.0, "review_count": 3, "is_open": 1, "attributes": null, "categories": "Divorce & Family Law, Lawyers, Professional Services", "hours": null}
{"business_id": "7jHdMx7t-0aVXgH7wgzXgQ", "name": "Fox Family Dental", "address": "10147 Grand Ave, Ste A-3", "city": "Sun City", "state": "AZ", "postal_code": "85351", "latitude": 33.598948, "longitude": -112.279334, "stars": 4.5, "review_count": 15, "is_open": 1, "attributes": {"AcceptsInsurance": "True", "BusinessAcceptsCreditCards": "True", "ByAppointmentOnly": "True"}, "categories": "Endodontists, Health & Medical, General Dentistry, Dentists, Cosmetic Dentists", "hours": {"Monday": "0:0-0:0", "Tuesday": "8:0-20:0", "Wednesday": "8:0-20:0", "Thursday": "8:0-20:0", "Friday": "8:0-18:0", "Saturday": "8:0-14:0"}}
{"business_id": "yTw8lz-ypR9mmDnUdG4z0Q", "name": "Dollar Tree", "address": "15472 N 99th Ave", "city": "Sun City", "state": "AZ", "postal_code": "85351", "latitude": 33.6240855, "longitude": -112.270222, "stars": 3.0, "review_count": 7, "is_open": 1, "attributes": {"BusinessParking": "{'garage': False, 'street': False, 'validated': False, 'lot': False, 'valet': False}", "RestaurantsPriceRange2": "1", "BusinessAcceptsCreditCards": "True"}, "categories": "Grocery, Shopping Centers, Food, Shopping", "hours": null}
{"business_id": "yqBsgFWeZrllaZyPjq8Csg", "name": "Delight Day Spa", "address": "18700 N 107th Ave", "city": "Sun City", "state": "AZ", "postal_code": "85373", "latitude": 33.653331, "longitude": -112.290722, "stars": 2.0, "review_count": 13, "is_open": 0, "attributes": {"BusinessParking": "{'garage': False, 'street': False, 'validated': False, 'lot': True, 'valet': False}", "RestaurantsPriceRange2": "2", "BusinessAcceptsCreditCards": "True", "ByAppointmentOnly": "True", "BikeParking": "True"}, "categories": "Beauty & Spas, Day Spas", "hours": null}
{"business_id": "9Z_srra9YNfwhyDGxVI_Tg", "name": "Furr's Buffet", "address": "10415 Grand Ave", "city": "Sun City", "state": "AZ", "postal_code": "85351", "latitude": 33.6000118, "longitude": -112.2825659, "stars": 4.0, "review_count": 9, "is_open": 0, "attributes": {"OutdoorSeating": "False", "BusinessAcceptsCreditCards": "True", "GoodForKids": "True", "RestaurantsAttire": "u'casual'", "Ambience": "{'romantic': False, 'intimate': False, 'touristy': False, 'hipster': False, 'divey': False, 'classy': False, 'trendy': False, 'upscale': False, 'casual': False}", "Caters": "False", "BusinessParking": "{'garage': False, 'street': False, 'validated': False, 'lot': False, 'valet': False}", "RestaurantsGoodForGroups": "True", "WiFi": "u'no'", "NoiseLevel": "u'average'", "RestaurantsPriceRange2": "1", "RestaurantsDelivery": "False", "Alcohol": "u'none'", "RestaurantsReservations": "False", "RestaurantsTakeOut": "True", "HasTV": "False"}, "categories": "Restaurants, American (Traditional), Buffets", "hours": null}
{"business_id": "iDqL9sD7P7niT7jYn4BI8w", "name": "CVS Pharmacy", "address": "10720 W Bell Rd", "city": "Sun City", "state": "AZ", "postal_code": "85351", "latitude": 33.6390683896, "longitude": -112.2909061864, "stars": 2.5, "review_count": 10, "is_open": 1, "attributes": {"BikeParking": "True", "BusinessAcceptsCreditCards": "True", "BusinessParking": "{'garage': False, 'street': False, 'validated': False, 'lot': False, 'valet': False}", "RestaurantsPriceRange2": "2"}, "categories": "Beauty & Spas, Cosmetics & Beauty Supply, Health & Medical, Drugstores, Shopping", "hours": {"Monday": "7:0-19:0", "Tuesday": "7:0-19:0", "Wednesday": "7:0-19:0", "Thursday": "7:0-19:0", "Friday": "7:0-19:0", "Saturday": "8:0-17:0", "Sunday": "9:0-17:0"}}
{"business_id": "Vpvn73QQbBpPNIv3uOvtjw", "name": "Fry's", "address": "10660 Grand Ave", "city": "Sun City", "state": "AZ", "postal_code": "85351", "latitude": 33.6015135397, "longitude": -112.2893485585, "stars": 3.0, "review_count": 26, "is_open": 1, "attributes": {"Caters": "False", "BikeParking": "True", "RestaurantsPriceRange2": "2", "RestaurantsTakeOut": "True", "BusinessAcceptsCreditCards": "True", "BusinessParking": "{'garage': False, 'street': False, 'validated': False, 'lot': True, 'valet': False}"}, "categories": "Food, Shopping, Drugstores, Grocery", "hours": {"Monday": "5:0-0:0", "Tuesday": "5:0-0:0", "Wednesday": "5:0-0:0", "Thursday": "5:0-0:0", "Friday": "5:0-0:0", "Saturday": "5:0-0:0", "Sunday": "5:0-0:0"}}
{"business_id": "-_xB9vYFTQDXKEwZrE5zIQ", "name": "Package Plus", "address": "13618 N 99th Ave", "city": "Sun City", "state": "AZ", "postal_code": "85351", "latitude": 33.6050488, "longitude": -112.2691236, "stars": 3.0, "review_count": 6, "is_open": 1, "attributes": null, "categories": "Shipping Centers, Local Services", "hours": {"Monday": "8:0-17:30", "Tuesday": "8:0-17:30", "Wednesday": "8:0-17:30", "Thursday": "8:0-17:30", "Friday": "8:0-17:30", "Saturday": "9:0-13:0"}}
{"business_id": "lb26Toy99S0hU8oqTJFlcQ", "name": "US Post Office", "address": "9802 W Bell Rd", "city": "Sun City", "state": "AZ", "postal_code": "85351", "latitude": 33.6387347, "longitude": -112.2710944, "stars": 2.5, "review_count": 8, "is_open": 1, "attributes": {"BusinessAcceptsCreditCards": "True"}, "categories": "Local Services, Post Offices, Public Services & Government, Shipping Centers", "hours": {"Monday": "9:0-17:0", "Tuesday": "9:0-17:0", "Wednesday": "9:0-17:0", "Thursday": "9:0-17:0", "Friday": "9:0-17:0", "Saturday": "9:0-13:0"}}
{"business_id": "GXjLVe6BTzc_6B6tVJO2TA", "name": "H&R Block", "address": "10753 Grand Ave", "city": "Sun City", "state": "AZ", "postal_code": "85351", "latitude": 33.6017835, "longitude": -112.2920945, "stars": 2.5, "review_count": 3, "is_open": 1, "attributes": null, "categories": "Professional Services, Tax Services, Financial Advising, Accountants, Financial Services", "hours": {"Wednesday": "9:0-17:0", "Thursday": "9:0-13:0"}}
{"business_id": "-2XMn8phKIqizvss9PBLCw", "name": "Private Reserve Beef", "address": "", "city": "Sun City", "state": "AZ", "postal_code": "85351", "latitude": 33.6020658, "longitude": -112.280129, "stars": 3.5, "review_count": 3, "is_open": 1, "attributes": {"RestaurantsTakeOut": "True", "RestaurantsPriceRange2": "2", "BusinessAcceptsCreditCards": "True", "BikeParking": "False"}, "categories": "Food Delivery Services, Food", "hours": {"Monday": "9:0-17:0", "Tuesday": "9:0-17:0", "Wednesday": "9:0-17:0", "Thursday": "9:0-17:0", "Friday": "9:0-17:0", "Saturday": "9:0-17:0"}}
{"business_id": "hzAoiIN6GbwY1c_OQkHwWQ", "name": "Wildflower Dental", "address": "18818 N 99th Ave", "city": "Sun City", "state": "AZ", "postal_code": "85373", "latitude": 33.6557407, "longitude": -112.2801756, "stars": 4.0, "review_count": 11, "is_open": 1, "attributes": {"BusinessAcceptsCreditCards": "True", "AcceptsInsurance": "True", "ByAppointmentOnly": "True"}, "categories": "Dentists, General Dentistry, Health & Medical", "hours": {"Monday": "8:0-17:0", "Tuesday": "8:0-17:0", "Wednesday": "8:0-17:0", "Thursday": "8:0-17:0", "Friday": "8:0-17:0"}}
{"business_id": "aqcJIc3rZ56S3n_M-2qdMw", "name": "Midas", "address": "9958 Santa Fe Drive", "city": "Sun City", "state": "AZ", "postal_code": "85351", "latitude": 33.5989801, "longitude": -112.2733763, "stars": 4.5, "review_count": 14, "is_open": 1, "attributes": {"BusinessAcceptsCreditCards": "True"}, "categories": "Oil Change Stations, Tires, Automotive, Auto Repair", "hours": {"Monday": "7:30-18:0", "Tuesday": "7:30-18:0", "Wednesday": "7:30-18:0", "Thursday": "7:30-18:0", "Friday": "7:30-18:0", "Saturday": "7:30-17:0"}}
{"business_id": "QPCPa-LasXaj61vHyVRf5Q", "name": "Banner Boswell Medical Center", "address": "10401 West Thunderbird Blvd", "city": "Sun City", "state": "AZ", "postal_code": "85351", "latitude": 33.6045149709, "longitude": -112.2851324579, "stars": 2.5, "review_count": 42, "is_open": 1, "attributes": {"AcceptsInsurance": "True", "BusinessAcceptsCreditCards": "True", "ByAppointmentOnly": "True"}, "categories": "Urgent Care, Medical Centers, Hospitals, Health & Medical", "hours": {"Monday": "0:0-0:0", "Tuesday": "0:0-0:0", "Wednesday": "0:0-0:0", "Thursday": "0:0-0:0", "Friday": "0:0-0:0", "Saturday": "0:0-0:0", "Sunday": "0:0-0:0"}}
{"business_id": "1MYMNa8L6sshGoMEuzL7pg", "name": "Sunburst Fashions & Shoes", "address": "14635 N Del Webb Blvd", "city": "Sun City", "state": "AZ", "postal_code": "85351", "latitude": 33.617633, "longitude": -112.29023, "stars": 3.5, "review_count": 3, "is_open": 1, "attributes": {"RestaurantsPriceRange2": "2", "BusinessAcceptsCreditCards": "True", "BusinessParking": "{'garage': False, 'street': False, 'validated': False, 'lot': False, 'valet': False}"}, "categories": "Women's Clothing, Accessories, Shopping, Shoe Stores, Fashion", "hours": {"Monday": "9:0-16:0", "Tuesday": "9:0-16:0", "Wednesday": "9:0-16:0", "Thursday": "9:0-16:0", "Friday": "9:0-16:0", "Saturday": "9:0-16:0"}}
{"business_id": "N4Jr6udeX8kXi3qosA1b8g", "name": "Arizona Dental", "address": "10001 W Bell Rd, Ste 123", "city": "Sun City", "state": "AZ", "postal_code": "85351", "latitude": 33.6372403, "longitude": -112.2754603, "stars": 5.0, "review_count": 6, "is_open": 1, "attributes": {"ByAppointmentOnly": "False", "BusinessAcceptsCreditCards": "True"}, "categories": "Cosmetic Dentists, Health & Medical, General Dentistry, Dentists", "hours": {"Monday": "8:0-17:0", "Tuesday": "8:0-17:0", "Wednesday": "8:0-17:0", "Thursday": "8:0-17:0"}}
{"business_id": "6CjTqFjufuyHLH4kNEzAtg", "name": "Automotive Power Window Repair", "address": "9915 W Bell Rd, Ste 109", "city": "Sun City", "state": "AZ", "postal_code": "85351", "latitude": 33.6378897, "longitude": -112.2746773, "stars": 5.0, "review_count": 4, "is_open": 0, "attributes": null, "categories": "Auto Glass Services, Auto Repair, Automotive", "hours": null}
{"business_id": "ZHNxxsZrowzP-RedJ6cSFA", "name": "Dominic's Bistro Italiano", "address": "10001 W Bell Rd", "city": "Sun City", "state": "AZ", "postal_code": "85351", "latitude": 33.6372393, "longitude": -112.2754603, "stars": 4.0, "review_count": 62, "is_open": 1, "attributes": {"RestaurantsAttire": "u'casual'", "RestaurantsGoodForGroups": "True", "Alcohol": "u'full_bar'", "RestaurantsDelivery": "False", "WiFi": "u'no'", "BikeParking": "True", "BusinessParking": "{'garage': False, 'street': False, 'validated': False, 'lot': True, 'valet': False}", "HasTV": "True", "Ambience": "{'romantic': False, 'intimate': False, 'touristy': False, 'hipster': False, 'divey': False, 'classy': False, 'trendy': False, 'upscale': False, 'casual': True}", "GoodForMeal": "{'dessert': False, 'latenight': False, 'lunch': True, 'dinner': True, 'brunch': False, 'breakfast': False}", "RestaurantsTakeOut": "True", "BusinessAcceptsCreditCards": "True", "OutdoorSeating": "True", "RestaurantsReservations": "True", "GoodForKids": "True", "NoiseLevel": "u'average'", "RestaurantsPriceRange2": "2", "Caters": "True"}, "categories": "Italian, Restaurants", "hours": {"Monday": "11:0-20:0", "Tuesday": "11:0-20:0", "Wednesday": "11:0-20:0", "Thursday": "11:0-20:0", "Friday": "11:0-23:30", "Saturday": "15:0-23:30"}}
{"business_id": "7bwDsdQgH61QWn2O4m1JNA", "name": "Clean Freak Car Wash", "address": "11045 W Grand Ave", "city": "Sun City", "state": "AZ", "postal_code": "85351", "latitude": 33.5992577, "longitude": -112.2792614, "stars": 3.0, "review_count": 7, "is_open": 1, "attributes": null, "categories": "Car Wash, Automotive, Tires", "hours": {"Monday": "7:0-19:0", "Tuesday": "7:0-19:0", "Wednesday": "7:0-19:0", "Thursday": "7:0-19:0", "Friday": "7:0-19:0", "Saturday": "7:0-19:0", "Sunday": "7:0-19:0"}}
{"business_id": "LXyAP1vxS0aytLkEnrwpSA", "name": "Se\u00f1or Taco", "address": "9510 W Bell Rd", "city": "Sun City", "state": "AZ", "postal_code": "85351", "latitude": 33.638589, "longitude": -112.263685, "stars": 4.0, "review_count": 102, "is_open": 1, "attributes": {"BikeParking": "True", "GoodForKids": "True", "Alcohol": "'none'", "RestaurantsTableService": "False", "RestaurantsDelivery": "False", "BusinessAcceptsCreditCards": "True", "OutdoorSeating": "False", "RestaurantsReservations": "False", "WiFi": "'no'", "RestaurantsTakeOut": "True", "RestaurantsAttire": "'casual'", "BusinessParking": "{'garage': False, 'street': False, 'validated': False, 'lot': True, 'valet': False}", "GoodForMeal": "{'dessert': False, 'latenight': False, 'lunch': True, 'dinner': True, 'brunch': False, 'breakfast': True}", "HasTV": "True", "Caters": "False", "Ambience": "{'touristy': False, 'hipster': False, 'romantic': False, 'divey': False, 'intimate': False, 'trendy': False, 'upscale': False, 'classy': False, 'casual': True}", "NoiseLevel": "u'average'", "RestaurantsGoodForGroups": "True", "RestaurantsPriceRange2": "1"}, "categories": "Restaurants, Food, Mexican", "hours": {"Monday": "7:0-22:0", "Tuesday": "7:0-22:0", "Wednesday": "7:0-22:0", "Thursday": "7:0-22:0", "Friday": "7:0-22:0", "Saturday": "7:0-22:0", "Sunday": "8:0-21:0"}}
{"business_id": "7q4iQgI04K88OlcajGpaoQ", "name": "King Automotive Repair", "address": "10002 W Santa Fe Dr", "city": "Sun City", "state": "AZ", "postal_code": "85351", "latitude": 33.599081, "longitude": -112.2740516, "stars": 4.0, "review_count": 10, "is_open": 1, "attributes": {"BusinessAcceptsCreditCards": "True"}, "categories": "Auto Repair, Automotive", "hours": null}
{"business_id": "DAaq23jyAdIqndLVbAPi0Q", "name": "PRM Association Management", "address": "18700 N 107th Ave, Ste 10", "city": "Sun City", "state": "AZ", "postal_code": "85373", "latitude": 33.6531975, "longitude": -112.2912127, "stars": 5.0, "review_count": 5, "is_open": 1, "attributes": {"BusinessAcceptsCreditCards": "False"}, "categories": "Real Estate, Home Services, Property Management", "hours": null}
{"business_id": "lPPiiwk45KUFG9yMs_sNlA", "name": "CVS Pharmacy", "address": "9901B West Thunderbird Blvd", "city": "Sun City", "state": "AZ", "postal_code": "85351", "latitude": 33.608768, "longitude": -112.269259, "stars": 3.5, "review_count": 10, "is_open": 1, "attributes": {"RestaurantsPriceRange2": "4", "BusinessParking": "{'garage': False, 'street': False, 'validated': False, 'lot': False, 'valet': False}", "BusinessAcceptsCreditCards": "True", "BikeParking": "True"}, "categories": "Pharmacy, Shopping, Drugstores, Health & Medical", "hours": {"Monday": "8:0-21:0", "Tuesday": "8:0-21:0", "Wednesday": "8:0-21:0", "Thursday": "8:0-21:0", "Friday": "8:0-21:0", "Saturday": "9:0-17:0", "Sunday": "10:0-17:0"}}
{"business_id": "CZJdGxtDs9DKNDu3kPPkvg", "name": "Banner Olive Branch Senior Center", "address": "11250 N 107th Ave", "city": "Sun City", "state": "AZ", "postal_code": "85351", "latitude": 33.586667, "longitude": -112.290749, "stars": 4.0, "review_count": 4, "is_open": 1, "attributes": null, "categories": "Senior Centers, Medical Centers, Active Life, Health & Medical", "hours": {"Monday": "9:0-15:0", "Tuesday": "9:0-15:0", "Wednesday": "9:0-15:0", "Thursday": "9:0-15:0", "Friday": "9:0-14:0"}}
{"business_id": "PzQQTvymHQ_DhxryLTdvqg", "name": "inVision Massage", "address": "10404 W Coggins Dr, Ste 110", "city": "Sun City", "state": "AZ", "postal_code": "85351", "latitude": 33.5987908, "longitude": -112.2827095, "stars": 5.0, "review_count": 4, "is_open": 1, "attributes": {"RestaurantsPriceRange2": "2", "BusinessAcceptsCreditCards": "True", "BusinessParking": "{'garage': False, 'street': False, 'validated': False, 'lot': True, 'valet': False}", "ByAppointmentOnly": "True", "AcceptsInsurance": "False", "WheelchairAccessible": "True"}, "categories": "Massage, Massage Therapy, Health & Medical, Reflexology, Halotherapy, Day Spas, Acupuncture, Beauty & Spas", "hours": {"Monday": "9:0-18:0", "Tuesday": "9:0-18:0", "Wednesday": "9:0-18:0", "Thursday": "9:0-18:0", "Friday": "9:0-18:0", "Saturday": "9:0-18:0", "Sunday": "9:0-18:0"}}
{"business_id": "NzfyemTA2nOr8ss-avsoTg", "name": "Southwestern Eye Center", "address": "10615 West Thunderbird, Ste A100", "city": "Sun City", "state": "AZ", "postal_code": "85351", "latitude": 33.6047559, "longitude": -112.2880925, "stars": 4.5, "review_count": 10, "is_open": 1, "attributes": {"BusinessAcceptsCreditCards": "True", "ByAppointmentOnly": "True", "AcceptsInsurance": "True"}, "categories": "Shopping, Ophthalmologists, Health & Medical, Laser Eye Surgery/Lasik, Eyewear & Opticians, Optometrists, Doctors", "hours": {"Monday": "8:0-17:0", "Tuesday": "8:0-17:0", "Wednesday": "8:0-17:0", "Thursday": "8:0-17:0", "Friday": "8:0-17:0"}}
{"business_id": "K455dBrse4fEeBn4s39D6A", "name": "Domino's Pizza", "address": "9827 Grand Ave", "city": "Sun City", "state": "AZ", "postal_code": "85351", "latitude": 33.5968525, "longitude": -112.2718861, "stars": 2.5, "review_count": 23, "is_open": 1, "attributes": {"Caters": "True", "NoiseLevel": "u'average'", "RestaurantsTakeOut": "True", "BusinessParking": "{'garage': False, 'street': False, 'validated': False, 'lot': True, 'valet': False}", "RestaurantsAttire": "u'casual'", "GoodForMeal": "{'dessert': False, 'latenight': True, 'lunch': True, 'dinner': True, 'brunch': False, 'breakfast': False}", "GoodForKids": "True", "RestaurantsDelivery": "True", "Ambience": "{'touristy': False, 'hipster': False, 'romantic': False, 'divey': False, 'intimate': False, 'trendy': False, 'upscale': False, 'classy': False, 'casual': False}", "Alcohol": "u'none'", "RestaurantsReservations": "False", "RestaurantsGoodForGroups": "False", "RestaurantsPriceRange2": "2", "BusinessAcceptsCreditCards": "True", "OutdoorSeating": "False"}, "categories": "Pizza, Food Delivery Services, Chicken Wings, Food, American (Traditional), Sandwiches, Restaurants", "hours": {"Monday": "10:0-0:0", "Tuesday": "10:0-0:0", "Wednesday": "10:0-0:0", "Thursday": "10:0-0:0", "Friday": "10:0-1:0", "Saturday": "10:0-1:0", "Sunday": "10:0-0:0"}}
{"business_id": "NrjhPNBBzw4e35nV79Drzg", "name": "Grand Avenue Leather and Shoe Repair", "address": "10763 Grand Ave", "city": "Sun City", "state": "AZ", "postal_code": "85351", "latitude": 33.6018246, "longitude": -112.2922063, "stars": 4.0, "review_count": 4, "is_open": 1, "attributes": {"BusinessAcceptsCreditCards": "True"}, "categories": "Shoe Repair, Local Services", "hours": {"Monday": "9:0-17:0", "Tuesday": "9:0-17:0", "Wednesday": "9:0-17:0", "Thursday": "9:0-17:0", "Friday": "9:0-17:0", "Saturday": "9:0-15:0"}}
{"business_id": "_H1SrxjWSPJsn1TPY0nt3A", "name": "Tag Team Grafix", "address": "10032 W Bell Rd, Ste 106", "city": "Sun City", "state": "AZ", "postal_code": "85351", "latitude": 33.6385168, "longitude": -112.2759843, "stars": 5.0, "review_count": 4, "is_open": 1, "attributes": null, "categories": "Signmaking, Professional Services", "hours": null}
{"business_id": "R93AdNgFiqqFXg5AMxdWhQ", "name": "National Floor Care", "address": "9851 W Bell Rd", "city": "Sun City", "state": "AZ", "postal_code": "85351", "latitude": 33.6371193, "longitude": -112.2719208, "stars": 2.5, "review_count": 3, "is_open": 1, "attributes": {"BusinessAcceptsCreditCards": "True", "ByAppointmentOnly": "False"}, "categories": "Flooring, Home Services", "hours": {"Monday": "9:0-17:0", "Tuesday": "9:0-17:0", "Wednesday": "9:0-17:0", "Thursday": "9:0-17:0", "Friday": "9:0-17:0", "Saturday": "9:0-12:0"}}
{"business_id": "sy5w0Survgx_-uGeARvAOw", "name": "Walgreens", "address": "15442 N 99Th Ave", "city": "Sun City", "state": "AZ", "postal_code": "85351", "latitude": 33.6230535, "longitude": -112.2711875, "stars": 3.0, "review_count": 4, "is_open": 1, "attributes": {"RestaurantsPriceRange2": "2", "BusinessAcceptsCreditCards": "True", "ByAppointmentOnly": "False", "BikeParking": "True", "BusinessParking": "{'garage': False, 'street': False, 'validated': False, 'lot': False, 'valet': False}"}, "categories": "Drugstores, Food, Shopping, Cosmetics & Beauty Supply, Convenience Stores, Beauty & Spas", "hours": {"Monday": "7:0-20:0", "Tuesday": "7:0-21:0", "Wednesday": "7:0-21:0", "Thursday": "7:0-21:0", "Friday": "7:0-21:0", "Saturday": "7:0-21:0", "Sunday": "7:0-21:0"}}
{"business_id": "IBDzZWwbYEHSItKqLGM-4g", "name": "Bob Brown Service Experts", "address": "10020 Santa Fe Dr", "city": "Sun City", "state": "AZ", "postal_code": "85351", "latitude": 33.5993996, "longitude": -112.2745707, "stars": 2.0, "review_count": 19, "is_open": 1, "attributes": {"BusinessAcceptsCreditCards": "True", "ByAppointmentOnly": "True"}, "categories": "Water Heater Installation/Repair, Heating & Air Conditioning/HVAC, Insulation Installation, Home Services", "hours": {"Monday": "0:0-0:0", "Tuesday": "0:0-0:0", "Wednesday": "0:0-0:0", "Thursday": "0:0-0:0", "Friday": "0:0-0:0", "Saturday": "0:0-0:0", "Sunday": "0:0-0:0"}}
{"business_id": "RgVK8Za3n0orgm_aooV9bA", "name": "Federico's Mexican Food", "address": "9510 W Bell Rd", "city": "Sun City", "state": "AZ", "postal_code": "85351", "latitude": 33.638589, "longitude": -112.263685, "stars": 1.0, "review_count": 3, "is_open": 0, "attributes": {"Alcohol": "u'none'", "GoodForKids": "True", "RestaurantsReservations": "False", "RestaurantsPriceRange2": "1"}, "categories": "Restaurants, Mexican", "hours": null}
{"business_id": "QCize1-XcV6ZlCuEIqysmQ", "name": "Ghostlight Theatre", "address": "13541 West Camino Del Sol", "city": "Sun City", "state": "AZ", "postal_code": "85373", "latitude": 33.654174, "longitude": -112.351493, "stars": 4.0, "review_count": 8, "is_open": 1, "attributes": {"GoodForKids": "True"}, "categories": "Performing Arts, Arts & Entertainment", "hours": null}
{"business_id": "2Fl03L9cgedAI8wPU8hQrQ", "name": "The CORE Institute - Peoria", "address": "10494 W Thunderbird Blvd, Ste 102", "city": "Sun City", "state": "AZ", "postal_code": "85351", "latitude": 33.6056944, "longitude": -112.2847857, "stars": 2.0, "review_count": 30, "is_open": 1, "attributes": {"BusinessAcceptsCreditCards": "True", "ByAppointmentOnly": "True"}, "categories": "Neurologist, Orthopedists, Health & Medical, Sports Medicine, Doctors, Physical Therapy", "hours": {"Monday": "8:0-17:0", "Tuesday": "8:0-17:0", "Wednesday": "8:0-17:0", "Thursday": "8:0-17:0", "Friday": "8:0-17:0"}}
{"business_id": "MURmIw8O7wyZsHI7DGvrOA", "name": "Sun City Exxon", "address": "10120 W Bell Rd", "city": "Sun City", "state": "AZ", "postal_code": "85351", "latitude": 33.6386094, "longitude": -112.278332, "stars": 2.0, "review_count": 29, "is_open": 1, "attributes": {"BusinessAcceptsCreditCards": "True"}, "categories": "Auto Repair, Gas Stations, Automotive, Transmission Repair, Towing", "hours": {"Monday": "0:0-0:0", "Tuesday": "0:0-0:0", "Wednesday": "0:0-0:0", "Thursday": "0:0-0:0", "Friday": "0:0-0:0", "Saturday": "0:0-0:0", "Sunday": "0:0-0:0"}}
{"business_id": "bR23zlcVESo_vnBlCLBpwQ", "name": "Betty's Rooste", "address": "10503 W Thunderbird Blvd, Ste 102", "city": "Sun City", "state": "AZ", "postal_code": "85351", "latitude": 33.604479, "longitude": -112.285936, "stars": 4.5, "review_count": 20, "is_open": 1, "attributes": {"NoiseLevel": "u'average'", "RestaurantsReservations": "True", "RestaurantsTakeOut": "True", "BusinessAcceptsCreditCards": "True", "RestaurantsTableService": "True", "BusinessParking": "{'garage': False, 'street': False, 'validated': False, 'lot': True, 'valet': False}", "Ambience": "{'romantic': False, 'intimate': False, 'classy': False, 'hipster': False, 'divey': False, 'touristy': False, 'trendy': False, 'upscale': False, 'casual': True}", "BikeParking": "True", "WiFi": "'no'", "GoodForKids": "True", "RestaurantsAttire": "u'casual'", "HasTV": "False", "RestaurantsGoodForGroups": "True", "OutdoorSeating": "False", "WheelchairAccessible": "True", "RestaurantsPriceRange2": "1", "GoodForMeal": "{'dessert': False, 'latenight': False, 'lunch': True, 'dinner': False, 'brunch': False, 'breakfast': True}", "Caters": "False", "RestaurantsDelivery": "False", "Alcohol": "u'none'"}, "categories": "American (Traditional), Cafes, Breakfast & Brunch, Restaurants, Sandwiches, Salad", "hours": {"Monday": "0:0-0:0", "Tuesday": "7:30-14:0", "Wednesday": "7:30-14:0", "Thursday": "7:30-14:0", "Friday": "7:30-11:0"}}
{"business_id": "XFlVJyQT9odOCIn4wt3p5A", "name": "SERVPRO of Sun City/Sun City West/Southeast Surprise", "address": "", "city": "Sun City", "state": "AZ", "postal_code": "85372", "latitude": 33.6381822, "longitude": -112.2704757, "stars": 5.0, "review_count": 3, "is_open": 1, "attributes": {"ByAppointmentOnly": "False"}, "categories": "Home Services, Carpet Cleaning, Local Services, Damage Restoration", "hours": {"Monday": "0:0-0:0", "Tuesday": "0:0-0:0", "Wednesday": "0:0-0:0", "Thursday": "0:0-0:0", "Friday": "0:0-0:0", "Saturday": "0:0-0:0", "Sunday": "0:0-0:0"}}
{"business_id": "R3S77mhu83DlGJj4bUqQ_g", "name": "BODY & BRAIN Yoga Tai Chi", "address": "9821 W Bell Rd, Ste C1", "city": "Sun City", "state": "AZ", "postal_code": "85351", "latitude": 33.637657, "longitude": -112.271713, "stars": 5.0, "review_count": 3, "is_open": 1, "attributes": {"BusinessParking": "{'garage': False, 'street': False, 'validated': False, 'lot': False, 'valet': False}", "BikeParking": "True", "BusinessAcceptsCreditCards": "True"}, "categories": "Active Life, Tai Chi, Fitness & Instruction, Meditation Centers, Yoga", "hours": {"Monday": "8:0-20:0", "Tuesday": "8:0-20:0", "Wednesday": "8:0-20:0", "Thursday": "8:0-20:0", "Friday": "8:0-20:0", "Saturday": "8:0-12:0"}}
{"business_id": "bNdoobgQqhKxUuY92PUm6w", "name": "Gasser Dental", "address": "17220 N Boswell Blvd, Ste 200W", "city": "Sun City", "state": "AZ", "postal_code": "85373", "latitude": 33.6402385, "longitude": -112.2787399, "stars": 5.0, "review_count": 4, "is_open": 1, "attributes": {"ByAppointmentOnly": "True", "BusinessAcceptsCreditCards": "True"}, "categories": "Health & Medical, Cosmetic Dentists, Dentists, Oral Surgeons, General Dentistry", "hours": {"Monday": "8:0-17:0", "Tuesday": "8:0-17:0", "Wednesday": "8:0-17:0", "Thursday": "8:0-17:0"}}
{"business_id": "kWiMw481S5bxLCuPhO8dUA", "name": "The UPS Store", "address": "9915 W Bell Rd", "city": "Sun City", "state": "AZ", "postal_code": "85351", "latitude": 33.637871, "longitude": -112.274551, "stars": 3.5, "review_count": 10, "is_open": 1, "attributes": {"BusinessAcceptsCreditCards": "True"}, "categories": "Notaries, Local Services, Shipping Centers, Mailbox Centers, Printing Services", "hours": {"Monday": "0:0-0:0", "Tuesday": "7:30-18:0", "Wednesday": "7:30-18:0", "Thursday": "7:30-18:0", "Friday": "7:30-18:0", "Saturday": "9:0-16:0"}}
{"business_id": "-MRv4Q6MaA2w2rCJbrct_g", "name": "Linden Tree Nursery Inc", "address": "11150 W Beardsley Rd", "city": "Sun City", "state": "AZ", "postal_code": "85373", "latitude": 33.6675831, "longitude": -112.2991671, "stars": 4.5, "review_count": 3, "is_open": 1, "attributes": {"BusinessAcceptsCreditCards": "True", "RestaurantsPriceRange2": "2", "BusinessParking": "{'garage': False, 'street': False, 'validated': False, 'lot': False, 'valet': False}"}, "categories": "Landscaping, Nurseries & Gardening, Landscape Architects, Shopping, Home & Garden, Home Services", "hours": {"Monday": "8:0-17:0", "Tuesday": "8:0-17:0", "Wednesday": "8:0-17:0", "Thursday": "8:0-17:0", "Friday": "8:0-17:0", "Saturday": "8:0-17:0", "Sunday": "10:0-16:0"}}
{"business_id": "3bdkncmV6ApOs2ijp45TDQ", "name": "United Car Care", "address": "15001 N Del Webb Blvd", "city": "Sun City", "state": "AZ", "postal_code": "85351", "latitude": 33.6188972, "longitude": -112.2906073, "stars": 5.0, "review_count": 6, "is_open": 1, "attributes": {"BusinessAcceptsCreditCards": "True"}, "categories": "Oil Change Stations, Automotive, Auto Repair", "hours": {"Monday": "8:0-17:0", "Tuesday": "8:0-17:0", "Wednesday": "8:0-17:0", "Thursday": "8:0-17:0", "Friday": "8:0-16:0"}}
{"business_id": "19juhaq-H-bhbwV2qKH6rA", "name": "Safeway Pharmacy", "address": "10926 W Bell Rd", "city": "Sun City", "state": "AZ", "postal_code": "85351", "latitude": 33.6384755, "longitude": -112.2922372, "stars": 2.5, "review_count": 3, "is_open": 1, "attributes": {"BusinessParking": "{'garage': False, 'street': False, 'validated': False, 'lot': False, 'valet': False}", "BusinessAcceptsCreditCards": "True"}, "categories": "Drugstores, Shopping", "hours": null}
{"business_id": "VM5Orfi12yuxgQbUx8M57w", "name": "JB's Restaurants", "address": "9889 W Bell Rd", "city": "Sun City", "state": "AZ", "postal_code": "85351", "latitude": 33.6377978, "longitude": -112.272917, "stars": 4.0, "review_count": 5, "is_open": 1, "attributes": {"RestaurantsAttire": "u'casual'", "RestaurantsPriceRange2": "2", "OutdoorSeating": "False", "RestaurantsTakeOut": "True", "RestaurantsReservations": "False", "GoodForMeal": "{'dessert': False, 'latenight': False, 'lunch': True, 'dinner': False, 'brunch': False, 'breakfast': False}", "BusinessAcceptsCreditCards": "True", "BusinessParking": "{'garage': False, 'street': False, 'validated': False, 'lot': True, 'valet': False}", "BikeParking": "True", "GoodForKids": "True", "WiFi": "u'no'", "NoiseLevel": "u'average'", "RestaurantsDelivery": "False", "RestaurantsGoodForGroups": "True", "Ambience": "{'romantic': False, 'intimate': False, 'classy': False, 'hipster': False, 'divey': False, 'touristy': False, 'trendy': False, 'upscale': False, 'casual': False}"}, "categories": "American (Traditional), Restaurants", "hours": null}
{"business_id": "mPBUVLUB9rUymXbGLi7j3A", "name": "Al's Meat Market", "address": "18700 N 107th Ave, Ste 21", "city": "Sun City", "state": "AZ", "postal_code": "85373", "latitude": 33.653529, "longitude": -112.290851, "stars": 5.0, "review_count": 18, "is_open": 1, "attributes": {"BusinessAcceptsCreditCards": "True", "RestaurantsPriceRange2": "3", "BikeParking": "True", "BusinessParking": "{'garage': False, 'street': False, 'validated': False, 'lot': True, 'valet': False}"}, "categories": "Meat Shops, Food, Specialty Food", "hours": {"Tuesday": "9:0-17:0", "Wednesday": "9:0-17:0", "Thursday": "9:0-17:0", "Friday": "9:0-17:0", "Saturday": "8:0-16:0"}}
{"business_id": "jsCjZaNoh92IQkyNH8XHrg", "name": "Pete Nelson Automotive", "address": "9000 N 103rd Ave", "city": "Sun City", "state": "AZ", "postal_code": "85351", "latitude": 33.5661219, "longitude": -112.2816802, "stars": 3.0, "review_count": 12, "is_open": 1, "attributes": null, "categories": "Towing, Transmission Repair, Tires, Auto Repair, Automotive", "hours": {"Monday": "7:0-17:0", "Tuesday": "7:0-17:0", "Wednesday": "7:0-17:0", "Thursday": "7:0-17:0", "Friday": "7:0-17:0", "Saturday": "8:0-15:0"}}
{"business_id": "0Y3lHyqRHfWOBuQlS1bM0g", "name": "PC Savants", "address": "11966 W Candelaria Ct", "city": "Sun City", "state": "AZ", "postal_code": "85373", "latitude": 33.690092, "longitude": -112.318748, "stars": 4.5, "review_count": 11, "is_open": 1, "attributes": {"BusinessAcceptsBitcoin": "False", "BusinessAcceptsCreditCards": "True"}, "categories": "Electronics Repair, IT Services & Computer Repair, Mobile Phone Repair, Local Services", "hours": {"Monday": "10:0-19:0", "Tuesday": "10:0-19:0", "Wednesday": "10:0-19:0", "Thursday": "10:0-19:0", "Friday": "10:0-19:0", "Saturday": "11:0-18:0", "Sunday": "11:0-18:0"}}
{"business_id": "9gdGI4reocg79AybmQAh9g", "name": "Moore Law Firm", "address": "9949 W Bell Rd, Ste 201", "city": "Sun City", "state": "AZ", "postal_code": "85351", "latitude": 33.6375723, "longitude": -112.2752392, "stars": 4.0, "review_count": 5, "is_open": 1, "attributes": null, "categories": "Divorce & Family Law, Estate Planning Law, Criminal Defense Law, Lawyers, Professional Services", "hours": {"Monday": "9:0-17:0", "Tuesday": "9:0-17:0", "Wednesday": "9:0-17:0", "Thursday": "9:0-17:0", "Friday": "9:0-17:0"}}
{"business_id": "nist6UGz0213A9kTrwHJ3A", "name": "Little Bite of Italy", "address": "15456 N 99th Ave", "city": "Sun City", "state": "AZ", "postal_code": "85351", "latitude": 33.62376, "longitude": -112.27116, "stars": 3.0, "review_count": 51, "is_open": 1, "attributes": {"RestaurantsReservations": "True", "BusinessAcceptsCreditCards": "True", "RestaurantsGoodForGroups": "True", "OutdoorSeating": "True", "HasTV": "True", "BikeParking": "True", "RestaurantsPriceRange2": "2", "RestaurantsTakeOut": "True", "RestaurantsAttire": "'casual'", "BusinessParking": "{'garage': False, 'street': False, 'validated': False, 'lot': True, 'valet': False}", "WiFi": "u'no'", "NoiseLevel": "u'average'", "Ambience": "{'romantic': False, 'intimate': False, 'touristy': False, 'hipster': False, 'divey': False, 'classy': False, 'trendy': False, 'upscale': False, 'casual': True}", "RestaurantsDelivery": "False", "Alcohol": "u'full_bar'", "GoodForKids": "True"}, "categories": "Italian, Pizza, Restaurants", "hours": {"Monday": "11:0-21:0", "Tuesday": "11:0-21:0", "Wednesday": "11:0-21:0", "Thursday": "11:0-21:0", "Friday": "11:0-0:0", "Saturday": "11:0-0:0", "Sunday": "15:0-20:0"}}
{"business_id": "nruWi3OySJnVDW8R4nvSNQ", "name": "Arizona Neurological Institute", "address": "10474 W Thunderbird Blvd, Ste 200", "city": "Sun City", "state": "AZ", "postal_code": "85351", "latitude": 33.6055805, "longitude": -112.2839478, "stars": 1.5, "review_count": 13, "is_open": 1, "attributes": {"ByAppointmentOnly": "True", "BusinessAcceptsCreditCards": "True", "AcceptsInsurance": "True"}, "categories": "Doctors, Neurologist, Health & Medical", "hours": null}
{"business_id": "QgHj9NwIuxEJa0aVjF9esA", "name": "Consigning Women", "address": "10712 W Bell Rd", "city": "Sun City", "state": "AZ", "postal_code": "85351", "latitude": 33.6392513, "longitude": -112.2903684, "stars": 3.5, "review_count": 6, "is_open": 1, "attributes": {"RestaurantsPriceRange2": "2", "BusinessAcceptsCreditCards": "True", "BikeParking": "True", "BusinessParking": "{'garage': False, 'street': False, 'validated': False, 'lot': False, 'valet': False}"}, "categories": "Accessories, Used, Vintage & Consignment, Shopping, Shoe Stores, Women's Clothing, Fashion", "hours": {"Monday": "9:0-16:0", "Tuesday": "9:0-16:0", "Wednesday": "9:0-16:0", "Thursday": "9:0-16:0", "Friday": "9:0-16:0", "Saturday": "9:0-16:0"}}
{"business_id": "9k_zDXPMrbVxe7RLxZ4mIQ", "name": "Family Dollar", "address": "13602 N 99th Ave", "city": "Sun City", "state": "AZ", "postal_code": "85351", "latitude": 33.6075605427, "longitude": -112.2689598799, "stars": 3.0, "review_count": 3, "is_open": 1, "attributes": {"BusinessAcceptsCreditCards": "True", "BusinessParking": "{'garage': False, 'street': False, 'validated': False, 'lot': False, 'valet': False}", "RestaurantsPriceRange2": "1"}, "categories": "Shopping, Discount Store", "hours": {"Monday": "9:0-21:0", "Tuesday": "9:0-21:0", "Wednesday": "9:0-21:0", "Thursday": "9:0-21:0", "Friday": "9:0-21:0", "Saturday": "9:0-21:0", "Sunday": "9:0-21:0"}}
{"business_id": "vw2u38fXhK-pEhlYKNR1vw", "name": "Express Urgent Care", "address": "10249 W Thunderbird Blvd, Ste 300", "city": "Sun City", "state": "AZ", "postal_code": "85351", "latitude": 33.604488, "longitude": -112.28082, "stars": 4.0, "review_count": 28, "is_open": 1, "attributes": {"ByAppointmentOnly": "False", "BusinessAcceptsCreditCards": "True"}, "categories": "Health & Medical, Urgent Care", "hours": {"Monday": "7:0-19:0", "Tuesday": "7:0-19:0", "Wednesday": "7:0-19:0", "Thursday": "7:0-19:0", "Friday": "7:0-19:0", "Saturday": "7:0-19:0", "Sunday": "7:0-19:0"}}
{"business_id": "XPjlZl2HOeNR7JzuXEOegQ", "name": "Am Golden Touch Massage", "address": "15426 N 99th Ave", "city": "Sun City", "state": "AZ", "postal_code": "85351", "latitude": 33.6227933, "longitude": -112.2715187, "stars": 4.5, "review_count": 4, "is_open": 1, "attributes": {"ByAppointmentOnly": "False", "BusinessParking": "{'garage': False, 'street': True, 'validated': False, 'lot': False, 'valet': False}", "BusinessAcceptsCreditCards": "True", "WheelchairAccessible": "True", "AcceptsInsurance": "False", "BikeParking": "True", "RestaurantsPriceRange2": "1"}, "categories": "Massage, Beauty & Spas", "hours": {"Monday": "9:0-21:0", "Tuesday": "9:0-21:0", "Wednesday": "9:0-21:0", "Thursday": "9:0-21:0", "Friday": "9:0-21:0", "Saturday": "9:0-21:0", "Sunday": "9:0-21:0"}}
{"business_id": "ZMJZvkPle-jDKFbfkRI78A", "name": "Monty's Central Vacuum", "address": "", "city": "Sun City", "state": "AZ", "postal_code": "85372", "latitude": 33.6381822, "longitude": -112.2704757, "stars": 3.5, "review_count": 7, "is_open": 1, "attributes": {"BusinessAcceptsCreditCards": "True"}, "categories": "Appliances & Repair, Home Services, Local Services", "hours": {"Monday": "7:0-17:0", "Tuesday": "7:0-17:0", "Wednesday": "7:0-17:0", "Thursday": "7:0-17:0", "Friday": "7:0-17:0"}}
{"business_id": "blUgghIdsUG7pNqxCphk9w", "name": "Chang Lee Restaurant", "address": "13600 N 99th Ave", "city": "Sun City", "state": "AZ", "postal_code": "85351", "latitude": 33.6073652, "longitude": -112.2689987, "stars": 3.0, "review_count": 41, "is_open": 1, "attributes": {"RestaurantsDelivery": "True", "RestaurantsGoodForGroups": "True", "RestaurantsTakeOut": "True", "RestaurantsPriceRange2": "2", "Alcohol": "u'full_bar'", "Ambience": "{'romantic': False, 'intimate': False, 'touristy': False, 'hipster': False, 'divey': False, 'classy': False, 'trendy': False, 'upscale': False, 'casual': True}", "NoiseLevel": "u'quiet'", "BikeParking": "True", "BusinessAcceptsCreditCards": "True", "WiFi": "u'no'", "HasTV": "True", "RestaurantsAttire": "'casual'", "RestaurantsReservations": "True", "Caters": "True", "OutdoorSeating": "False", "GoodForKids": "True", "BusinessParking": "{'garage': False, 'street': False, 'validated': False, 'lot': True, 'valet': False}", "RestaurantsTableService": "True"}, "categories": "Chinese, Asian Fusion, Food, Restaurants, Food Delivery Services", "hours": {"Monday": "11:0-21:0", "Tuesday": "11:0-21:0", "Wednesday": "11:0-21:0", "Thursday": "11:0-21:0", "Friday": "11:0-21:0", "Saturday": "11:0-21:0", "Sunday": "11:0-21:0"}}
{"business_id": "OVIPmMuBsdpdvbnPvsS2_A", "name": "Estate Resale", "address": "10050 W Bell Rd, Ste 35", "city": "Sun City", "state": "AZ", "postal_code": "85351", "latitude": 33.6396113, "longitude": -112.276124, "stars": 2.5, "review_count": 14, "is_open": 1, "attributes": {"RestaurantsPriceRange2": "2"}, "categories": "Furniture Stores, Home & Garden, Home Decor, Shopping, Antiques", "hours": null}
{"business_id": "L14FpyB0aDMYoiQ8NAX_Lg", "name": "Nova Spine Pain Institute", "address": "13203 N 103rd Ave, Ste H5", "city": "Sun City", "state": "AZ", "postal_code": "85351", "latitude": 33.6037018492, "longitude": -112.2793365585, "stars": 3.0, "review_count": 16, "is_open": 1, "attributes": {"AcceptsInsurance": "True", "BusinessAcceptsCreditCards": "True", "ByAppointmentOnly": "True"}, "categories": "Doctors, Health & Medical, Medical Centers, Pain Management, Rehabilitation Center", "hours": {"Monday": "7:0-17:0", "Tuesday": "7:0-17:0", "Wednesday": "7:0-17:0", "Thursday": "7:0-17:0", "Friday": "7:0-17:0", "Saturday": "8:0-12:0", "Sunday": "8:0-12:0"}}
{"business_id": "3e8SSRxGY3W9pZbJvW96CA", "name": "Desert Financial Credit Union", "address": "10725 Grand Ave", "city": "Sun City", "state": "AZ", "postal_code": "85351", "latitude": 33.602644, "longitude": -112.291428, "stars": 2.5, "review_count": 7, "is_open": 1, "attributes": null, "categories": "Banks & Credit Unions, Financial Services, Auto Loan Providers, Automotive, Investing, Home Services, Real Estate, Mortgage Brokers", "hours": {"Monday": "9:0-18:0", "Tuesday": "9:0-18:0", "Wednesday": "9:0-18:0", "Thursday": "9:0-18:0", "Friday": "9:0-18:0", "Saturday": "9:0-13:0"}}
{"business_id": "W1QiqlXMquGuivZb4TPfHw", "name": "Hertz Rent A Car", "address": "9875 West Bell Rd", "city": "Sun City", "state": "AZ", "postal_code": "85351", "latitude": 33.6374769, "longitude": -112.2722587, "stars": 2.5, "review_count": 19, "is_open": 1, "attributes": null, "categories": "Hotels & Travel, Car Rental", "hours": {"Monday": "7:30-18:0", "Tuesday": "7:30-18:0", "Wednesday": "7:30-18:0", "Thursday": "7:30-18:0", "Friday": "7:30-18:0", "Saturday": "9:0-13:0"}}
{"business_id": "iWi6AC_Fw5T58m-A5RmLaw", "name": "Ace Locksmith", "address": "10404 W Coggins Dr, Ste 105", "city": "Sun City", "state": "AZ", "postal_code": "85351", "latitude": 33.5993155, "longitude": -112.2825972, "stars": 4.0, "review_count": 12, "is_open": 1, "attributes": {"BusinessAcceptsCreditCards": "True", "BusinessAcceptsBitcoin": "False", "ByAppointmentOnly": "False"}, "categories": "Keys & Locksmiths, Home Services", "hours": {"Monday": "7:0-22:0", "Tuesday": "7:0-22:0", "Wednesday": "8:0-15:0", "Thursday": "7:0-22:0", "Friday": "7:0-22:0", "Saturday": "7:0-22:0", "Sunday": "7:0-22:0"}}
{"business_id": "8pNZv_l8eG76npOeRKtxoQ", "name": "Do My Nails", "address": "9009 N 103rd Ave", "city": "Sun City", "state": "AZ", "postal_code": "85351", "latitude": 33.5661217408, "longitude": -112.2805919498, "stars": 4.5, "review_count": 42, "is_open": 1, "attributes": {"ByAppointmentOnly": "False", "RestaurantsPriceRange2": "2", "BikeParking": "True", "BusinessAcceptsCreditCards": "True", "BusinessParking": "{'garage': False, 'street': False, 'validated': False, 'lot': True, 'valet': False}"}, "categories": "Nail Salons, Beauty & Spas", "hours": {"Monday": "9:0-18:0", "Tuesday": "9:0-18:0", "Wednesday": "9:0-18:0", "Thursday": "9:0-18:0", "Friday": "9:0-18:0", "Saturday": "9:0-17:0"}}
{"business_id": "-XLjdLpTLJ672EMN5Dfrhg", "name": "Hakuna Matata Nails and Spa", "address": "15414 N 99th Ave", "city": "Sun City", "state": "AZ", "postal_code": "85351", "latitude": 33.6222577, "longitude": -112.2692799, "stars": 4.0, "review_count": 9, "is_open": 1, "attributes": {"ByAppointmentOnly": "False", "BusinessAcceptsCreditCards": "True", "BikeParking": "True", "BusinessParking": "{'garage': False, 'street': False, 'validated': False, 'lot': False, 'valet': True}", "RestaurantsPriceRange2": "2"}, "categories": "Beauty & Spas, Nail Salons", "hours": {"Monday": "8:30-16:30", "Tuesday": "8:30-16:30", "Wednesday": "8:30-16:30", "Thursday": "8:30-16:30", "Friday": "8:30-16:30", "Saturday": "8:30-16:30"}}
{"business_id": "4G_320jYj4YwcZTu-aTqQA", "name": "Sher's Discount Clothing", "address": "15466 N 99th Ave", "city": "Sun City", "state": "AZ", "postal_code": "85351", "latitude": 33.6229557, "longitude": -112.2695162, "stars": 4.0, "review_count": 4, "is_open": 1, "attributes": null, "categories": "Shopping, Fashion", "hours": null}
{"business_id": "D0oYgsPBdkBYqth5zttEsg", "name": "Big Burrito", "address": "9510 W Bell Rd", "city": "Sun City", "state": "AZ", "postal_code": "85351", "latitude": 33.638589, "longitude": -112.263685, "stars": 1.5, "review_count": 6, "is_open": 0, "attributes": {"RestaurantsGoodForGroups": "False", "GoodForKids": "False", "RestaurantsDelivery": "False", "RestaurantsTakeOut": "True", "RestaurantsReservations": "False", "WiFi": "u'no'", "OutdoorSeating": "False", "Caters": "False"}, "categories": "Food, Mexican, Restaurants", "hours": null}
{"business_id": "lDYGTZma2kdyJszZHoGvtA", "name": "Sun City Florists", "address": "14629 Del Webb Blvd", "city": "Sun City", "state": "AZ", "postal_code": "85351", "latitude": 33.6176275, "longitude": -112.2900779, "stars": 4.0, "review_count": 28, "is_open": 1, "attributes": {"RestaurantsPriceRange2": "2", "RestaurantsDelivery": "True", "BusinessParking": "{'garage': False, 'street': False, 'validated': False, 'lot': False, 'valet': False}", "BusinessAcceptsCreditCards": "True"}, "categories": "Shopping, Florists, Flowers & Gifts", "hours": {"Monday": "8:0-17:0", "Tuesday": "8:0-17:0", "Wednesday": "8:0-17:0", "Thursday": "8:0-17:0", "Friday": "8:0-17:0", "Saturday": "8:0-17:0"}}
{"business_id": "zjT5e1q37E7Od8DceC9Eng", "name": "Arizona Hot Dog", "address": "9000 N 103rd Ave", "city": "Sun City", "state": "AZ", "postal_code": "85345", "latitude": 33.5657183321, "longitude": -112.2811625898, "stars": 4.5, "review_count": 3, "is_open": 0, "attributes": null, "categories": "Restaurants, Hot Dogs", "hours": null}
{"business_id": "DnNd6Vuy-QewBJCc0eJm6Q", "name": "Setterberg Jewelers", "address": "9885 W Bell Rd", "city": "Sun City", "state": "AZ", "postal_code": "85351", "latitude": 33.6377227, "longitude": -112.2723311, "stars": 4.0, "review_count": 15, "is_open": 1, "attributes": {"RestaurantsPriceRange2": "2", "BusinessAcceptsCreditCards": "True", "BusinessParking": "{'garage': False, 'street': False, 'validated': False, 'lot': False, 'valet': False}", "BikeParking": "True", "ByAppointmentOnly": "False"}, "categories": "Watches, Shopping, Appraisal Services, Local Services, Jewelry Repair, Jewelry", "hours": {"Monday": "9:0-17:0", "Tuesday": "9:0-17:0", "Wednesday": "9:0-17:0", "Thursday": "9:0-17:0", "Friday": "9:0-17:0", "Saturday": "10:0-15:0"}}
{"business_id": "5kZVlxWf_QXByzf5RRokeA", "name": "Empire Coin & Valuables", "address": "10740 W Bell Rd", "city": "Sun City", "state": "AZ", "postal_code": "85351", "latitude": 33.6393834, "longitude": -112.2914875, "stars": 4.0, "review_count": 5, "is_open": 1, "attributes": {"ByAppointmentOnly": "False", "WheelchairAccessible": "True", "DogsAllowed": "True", "BusinessAcceptsBitcoin": "False", "BusinessAcceptsCreditCards": "True", "BikeParking": "True", "RestaurantsPriceRange2": "2"}, "categories": "Shopping, Jewelry, Antiques, Gold Buyers, Hobby Shops", "hours": {"Monday": "9:0-17:0", "Tuesday": "9:0-17:0", "Wednesday": "9:0-17:0", "Thursday": "9:0-17:0", "Friday": "9:0-17:0"}}
{"business_id": "o79K5Or7xtdyf1vRnjYcHg", "name": "Sun City True Value", "address": "15400 N 99th Ave", "city": "Sun City", "state": "AZ", "postal_code": "85351", "latitude": 33.6218893, "longitude": -112.271103, "stars": 3.0, "review_count": 3, "is_open": 1, "attributes": {"BusinessAcceptsCreditCards": "True", "RestaurantsPriceRange2": "2", "BusinessParking": "{'garage': False, 'street': False, 'validated': False, 'lot': False, 'valet': False}"}, "categories": "Building Supplies, Hardware Stores, Wholesale Stores, Home & Garden, Shopping, Home Services", "hours": {"Monday": "7:0-18:0", "Tuesday": "7:0-18:0", "Wednesday": "7:0-18:0", "Thursday": "7:0-18:0", "Friday": "7:0-18:0", "Saturday": "7:0-18:0", "Sunday": "8:0-17:0"}}
{"business_id": "HpIiNQwjz6ZAFyf96u9WZA", "name": "Taco Bell", "address": "10661 Grand Avenue", "city": "Sun City", "state": "AZ", "postal_code": "85351", "latitude": 33.60216, "longitude": -112.2895, "stars": 1.5, "review_count": 11, "is_open": 1, "attributes": null, "categories": "Restaurants, Fast Food, Mexican, Tex-Mex", "hours": {"Monday": "9:30-23:0", "Tuesday": "9:30-23:0", "Wednesday": "9:30-23:0", "Thursday": "9:30-23:0", "Friday": "9:30-23:0", "Saturday": "9:30-23:0", "Sunday": "9:30-23:0"}}
{"business_id": "Sj2uiYuBD8dyi2kOBSVIsA", "name": "Center Shoe Repair", "address": "15430 N 99th Ave", "city": "Sun City", "state": "AZ", "postal_code": "85351", "latitude": 33.6228008, "longitude": -112.2714067, "stars": 4.0, "review_count": 5, "is_open": 1, "attributes": {"BusinessAcceptsCreditCards": "False"}, "categories": "Shoe Repair, Local Services", "hours": null}
{"business_id": "S4kKHiAwHZXzZmvgjcfE8Q", "name": "Moringa Natural Health Center", "address": "13000 N 103rd Ave, Ste 74", "city": "Sun City", "state": "AZ", "postal_code": "85351", "latitude": 33.6018498, "longitude": -112.2817124, "stars": 5.0, "review_count": 5, "is_open": 1, "attributes": {"BusinessAcceptsCreditCards": "True"}, "categories": "Pain Management, Health & Medical, Naturopathic/Holistic, Acupuncture, Doctors, IV Hydration", "hours": {"Monday": "8:30-17:0", "Wednesday": "8:30-17:0", "Thursday": "8:30-17:0", "Friday": "8:30-17:0"}}
{"business_id": "mz7JSDIXPYeocIow_qxEaQ", "name": "Angels Touch Reiki", "address": "", "city": "Sun City", "state": "AZ", "postal_code": "85351", "latitude": 33.6020658, "longitude": -112.280129, "stars": 5.0, "review_count": 8, "is_open": 1, "attributes": null, "categories": "Health & Medical, Education, Specialty Schools, Reiki", "hours": null}
{"business_id": "6AcdDBrZZYNQbWIJI2QdZw", "name": "Sun City Vacuums & Sewing", "address": "9851 W Bell Rd", "city": "Sun City", "state": "AZ", "postal_code": "85351", "latitude": 33.6371193, "longitude": -112.2719208, "stars": 5.0, "review_count": 6, "is_open": 1, "attributes": {"BusinessAcceptsCreditCards": "True"}, "categories": "Appliances & Repair, Local Services", "hours": {"Monday": "9:0-17:0", "Tuesday": "9:0-17:0", "Wednesday": "9:0-17:0", "Thursday": "9:0-17:0", "Friday": "9:0-17:0", "Saturday": "9:0-13:0"}}
{"business_id": "YvSjMZwvGJiPXjLsuw01wA", "name": "Be Nails", "address": "10714 W Bell Rd", "city": "Sun City", "state": "AZ", "postal_code": "85351", "latitude": 33.6393032, "longitude": -112.2904278, "stars": 2.5, "review_count": 6, "is_open": 1, "attributes": null, "categories": "Beauty & Spas, Nail Salons", "hours": {"Monday": "8:30-18:0", "Tuesday": "8:30-18:0", "Wednesday": "8:30-18:0", "Thursday": "8:30-18:0", "Friday": "8:30-18:0", "Saturday": "8:30-18:0"}}
{"business_id": "OSIIfx2VlBB5j8zMYjs2CQ", "name": "Denny's TV & Appliance", "address": "13211 N 111th Ave", "city": "Sun City", "state": "AZ", "postal_code": "85351", "latitude": 33.604092, "longitude": -112.2982447, "stars": 1.0, "review_count": 3, "is_open": 1, "attributes": null, "categories": "Shopping, Electronics", "hours": {"Monday": "8:0-17:0", "Tuesday": "8:0-17:0", "Wednesday": "8:0-17:0", "Thursday": "8:0-17:0", "Friday": "8:0-17:0", "Saturday": "8:0-17:0"}}
{"business_id": "VPI3wxA8O2ITnt43BbhNUg", "name": "Dairy Queen", "address": "10799 Grand Ave", "city": "Sun City", "state": "AZ", "postal_code": "85351", "latitude": 33.6031599, "longitude": -112.2934946, "stars": 2.5, "review_count": 14, "is_open": 1, "attributes": {"Ambience": "{'romantic': False, 'intimate': False, 'classy': False, 'hipster': False, 'divey': False, 'touristy': False, 'trendy': False, 'upscale': False, 'casual': False}", "RestaurantsGoodForGroups": "True", "RestaurantsDelivery": "False", "BusinessAcceptsCreditCards": "True", "RestaurantsReservations": "False", "WiFi": "u'no'", "GoodForKids": "True", "OutdoorSeating": "True", "RestaurantsAttire": "'casual'", "RestaurantsPriceRange2": "1", "RestaurantsTakeOut": "True", "NoiseLevel": "u'quiet'"}, "categories": "Fast Food, Restaurants", "hours": {"Monday": "10:0-22:0", "Tuesday": "10:0-22:0", "Wednesday": "10:0-22:0", "Thursday": "10:0-22:0", "Friday": "10:0-22:30", "Saturday": "10:0-22:30", "Sunday": "11:0-22:0"}}
{"business_id": "4Zr3336ma4ZU5wmUTCe6KA", "name": "NextCare Urgent Care", "address": "9745 West Bell Road, Ste 105", "city": "Sun City", "state": "AZ", "postal_code": "85351", "latitude": 33.6376425, "longitude": -112.2699534, "stars": 3.5, "review_count": 22, "is_open": 1, "attributes": {"ByAppointmentOnly": "False", "BusinessAcceptsCreditCards": "True"}, "categories": "Doctors, Medical Centers, Health & Medical, Urgent Care", "hours": {"Monday": "0:0-0:0", "Tuesday": "8:0-20:0", "Wednesday": "8:0-20:0", "Thursday": "8:0-20:0", "Friday": "8:0-20:0", "Saturday": "8:0-16:0", "Sunday": "8:0-16:0"}}
{"business_id": "DbvgZm5ZKNqqTFsjCEPHmg", "name": "Royal Cafe", "address": "10793 Grand Ave", "city": "Sun City", "state": "AZ", "postal_code": "85351", "latitude": 33.60207, "longitude": -112.293102, "stars": 3.0, "review_count": 71, "is_open": 1, "attributes": {"BusinessParking": "{'garage': False, 'street': False, 'validated': False, 'lot': True, 'valet': False}", "RestaurantsTakeOut": "True", "RestaurantsTableService": "True", "BikeParking": "True", "DriveThru": "False", "GoodForMeal": "{'dessert': False, 'latenight': False, 'lunch': False, 'dinner': True, 'brunch': False, 'breakfast': True}", "Alcohol": "u'none'", "GoodForKids": "True", "RestaurantsPriceRange2": "1", "RestaurantsGoodForGroups": "True", "RestaurantsDelivery": "False", "HasTV": "False", "BusinessAcceptsCreditCards": "True", "NoiseLevel": "u'average'", "Caters": "False", "OutdoorSeating": "False", "RestaurantsReservations": "False", "RestaurantsAttire": "u'casual'", "Ambience": "None", "WiFi": "u'no'"}, "categories": "Chinese, Restaurants, Pizza, Burgers, Breakfast & Brunch, American (Traditional)", "hours": {"Monday": "6:0-20:0", "Tuesday": "6:0-20:0", "Wednesday": "6:0-20:0", "Thursday": "6:0-20:0", "Friday": "6:0-20:0", "Saturday": "6:0-20:0", "Sunday": "7:0-19:0"}}
{"business_id": "BuQdTxMwzEDqz6daDVQ7QQ", "name": "Bien Nails", "address": "10659 Grand Ave, Ste 7", "city": "Sun City", "state": "AZ", "postal_code": "85351", "latitude": 33.6013655, "longitude": -112.2884805, "stars": 4.0, "review_count": 9, "is_open": 1, "attributes": {"BusinessParking": "{'garage': False, 'street': False, 'validated': False, 'lot': False, 'valet': False}", "RestaurantsPriceRange2": "2", "BikeParking": "True", "ByAppointmentOnly": "False", "BusinessAcceptsCreditCards": "True"}, "categories": "Beauty & Spas, Waxing, Hair Removal, Nail Salons", "hours": {"Monday": "9:0-18:30", "Tuesday": "9:0-18:30", "Wednesday": "9:0-18:30", "Thursday": "9:0-18:30", "Friday": "9:0-18:30", "Saturday": "9:0-18:30"}}
{"business_id": "dQZOCI_IIxrUKPnRa56yog", "name": "Jimichael's Restaurant", "address": "13039 N 103rd Ave", "city": "Sun City", "state": "AZ", "postal_code": "85351", "latitude": 33.6036168, "longitude": -112.2809207, "stars": 3.5, "review_count": 45, "is_open": 1, "attributes": {"Caters": "False", "RestaurantsDelivery": "False", "OutdoorSeating": "True", "HasTV": "True", "RestaurantsTakeOut": "True", "Alcohol": "'beer_and_wine'", "BikeParking": "True", "NoiseLevel": "'average'", "Ambience": "{'romantic': False, 'intimate': False, 'classy': False, 'hipster': False, 'divey': False, 'touristy': False, 'trendy': False, 'upscale': False, 'casual': True}", "RestaurantsReservations": "False", "RestaurantsGoodForGroups": "True", "BusinessAcceptsCreditCards": "True", "BusinessParking": "{'garage': False, 'street': False, 'validated': False, 'lot': True, 'valet': False}", "WiFi": "u'no'", "RestaurantsTableService": "True", "RestaurantsPriceRange2": "1", "RestaurantsAttire": "u'casual'", "GoodForMeal": "{'dessert': False, 'latenight': False, 'lunch': True, 'dinner': True, 'brunch': False, 'breakfast': True}", "GoodForKids": "True"}, "categories": "American (Traditional), Restaurants", "hours": {"Monday": "6:0-20:0", "Tuesday": "6:0-20:0", "Wednesday": "6:0-20:0", "Thursday": "6:0-20:0", "Friday": "6:0-20:0", "Saturday": "6:0-20:0", "Sunday": "6:0-20:0"}}
{"business_id": "u4SJaZKPdSuhDnKDsNfANw", "name": "Barnet Dulaney Perkins Eye Center", "address": "14820 N Del Webb Blvd", "city": "Sun City", "state": "AZ", "postal_code": "85351", "latitude": 33.619334, "longitude": -112.291717, "stars": 3.5, "review_count": 19, "is_open": 1, "attributes": {"ByAppointmentOnly": "True"}, "categories": "Optometrists, Doctors, Ophthalmologists, Health & Medical, Laser Eye Surgery/Lasik", "hours": {"Monday": "6:30-17:0", "Tuesday": "6:30-17:0", "Wednesday": "6:30-17:0", "Thursday": "6:30-17:0", "Friday": "6:30-17:0"}}
{"business_id": "GJ-kf_phSZlvS0KvXnOlbA", "name": "Care from the Heart, Inc.", "address": "10032 W Bell Rd, Ste 104", "city": "Sun City", "state": "AZ", "postal_code": "85351", "latitude": 33.638383, "longitude": -112.275921, "stars": 4.0, "review_count": 4, "is_open": 1, "attributes": {"BusinessAcceptsCreditCards": "True", "ByAppointmentOnly": "True"}, "categories": "Home Health Care, Home Organization, Health & Medical, Home Services", "hours": {"Monday": "9:0-17:0", "Tuesday": "9:0-17:0", "Wednesday": "9:0-17:0", "Thursday": "9:0-17:0", "Friday": "9:0-17:0"}}
{"business_id": "PcemwEbN_fxwV339rWEj9w", "name": "A-Z Best Home Care", "address": "10327 W Coggins Dr", "city": "Sun City", "state": "AZ", "postal_code": "85351", "latitude": 33.5984597, "longitude": -112.2826205, "stars": 2.5, "review_count": 3, "is_open": 1, "attributes": null, "categories": "Hospice, Home Health Care, Health & Medical", "hours": {"Monday": "0:0-0:0", "Tuesday": "0:0-0:0", "Wednesday": "0:0-0:0", "Thursday": "0:0-0:0", "Friday": "0:0-0:0", "Saturday": "0:0-0:0", "Sunday": "0:0-0:0"}}
{"business_id": "P1d80_VyDLSqDg4ytdOVsA", "name": "Quick Mobile Repair", "address": "9421 W Bell Rd, Ste 106", "city": "Sun City", "state": "AZ", "postal_code": "85351", "latitude": 33.6376485, "longitude": -112.2627678, "stars": 5.0, "review_count": 13, "is_open": 1, "attributes": {"BikeParking": "True", "BusinessAcceptsBitcoin": "False", "WheelchairAccessible": "True", "BusinessAcceptsCreditCards": "True"}, "categories": "Mobile Phone Accessories, Mobile Phone Repair, Mobile Phones, Shopping, Local Services, IT Services & Computer Repair, Electronics Repair", "hours": {"Monday": "0:0-0:0", "Tuesday": "9:30-18:30", "Wednesday": "9:0-16:0", "Thursday": "9:30-18:30", "Friday": "9:30-18:30", "Saturday": "9:30-18:30"}}
{"business_id": "ThCjuCMnhbIiyk-dTxHMIQ", "name": "Sonora Quest Laboratories", "address": "10503 W Thunderbird Blvd, Ste 105", "city": "Sun City", "state": "AZ", "postal_code": "85351", "latitude": 33.6044937, "longitude": -112.2861831, "stars": 2.0, "review_count": 3, "is_open": 1, "attributes": {"BusinessAcceptsCreditCards": "True", "ByAppointmentOnly": "False", "AcceptsInsurance": "True"}, "categories": "Laboratory Testing, Health & Medical, Diagnostic Services", "hours": {"Monday": "0:0-0:0", "Tuesday": "6:30-15:0", "Wednesday": "6:30-12:0", "Thursday": "6:30-15:0", "Friday": "6:30-15:0"}}
{"business_id": "sWVgiSM7W9Gco5aEvUjbNA", "name": "Donoho Dental Associates", "address": "10503 W Thunderbird Blvd, Ste 384", "city": "Sun CIty", "state": "AZ", "postal_code": "85351", "latitude": 33.6044937, "longitude": -112.2861831, "stars": 5.0, "review_count": 3, "is_open": 1, "attributes": {"BusinessAcceptsCreditCards": "True", "ByAppointmentOnly": "True"}, "categories": "Dentists, Oral Surgeons, Health & Medical, Cosmetic Dentists, Medical Centers, General Dentistry", "hours": {"Monday": "8:0-17:0", "Tuesday": "8:0-17:0", "Wednesday": "8:0-17:0", "Thursday": "8:0-17:0", "Friday": "8:0-12:0"}}
{"business_id": "S3MUCm_ySlW5dtwGtdBd-w", "name": "Verizon Authorized Retailer, TCC", "address": "10001 W Bell Rd, Ste 154", "city": "Sun City", "state": "AZ", "postal_code": "85351", "latitude": 33.6369759592, "longitude": -112.2751204415, "stars": 3.0, "review_count": 7, "is_open": 1, "attributes": {"BusinessAcceptsCreditCards": "True", "RestaurantsPriceRange2": "2", "BusinessParking": "{'garage': False, 'street': False, 'validated': False, 'lot': False, 'valet': False}", "BikeParking": "True"}, "categories": "Local Services, Mobile Phone Accessories, Home Services, Internet Service Providers, IT Services & Computer Repair, Shopping, Electronics, Mobile Phones, Professional Services, Mobile Phone Repair", "hours": {"Monday": "9:0-20:0", "Tuesday": "9:0-20:0", "Wednesday": "9:0-20:0", "Thursday": "9:0-20:0", "Friday": "9:0-20:0", "Saturday": "9:0-19:0", "Sunday": "10:0-17:0"}}
{"business_id": "Tdc81BeaXlumPHGNefSDxQ", "name": "Safeway", "address": "10926 W Bell Rd", "city": "Sun City", "state": "AZ", "postal_code": "85351", "latitude": 33.6384755, "longitude": -112.2922372, "stars": 2.5, "review_count": 17, "is_open": 1, "attributes": {"RestaurantsPriceRange2": "2", "BusinessAcceptsCreditCards": "True", "RestaurantsTakeOut": "True", "Caters": "True", "RestaurantsDelivery": "False", "BusinessParking": "{'garage': False, 'street': False, 'validated': False, 'lot': True, 'valet': False}", "BikeParking": "True"}, "categories": "Drugstores, Grocery, Food, Florists, Flowers & Gifts, Shopping", "hours": null}
{"business_id": "4F86vAjiSuo4SUWeyCa7vA", "name": "Carpet Corner", "address": "9420 W Bell Rd, Ste 101", "city": "Sun City", "state": "AZ", "postal_code": "85351", "latitude": 33.6051836691, "longitude": -112.2778701782, "stars": 4.0, "review_count": 7, "is_open": 1, "attributes": {"BusinessAcceptsCreditCards": "True", "ByAppointmentOnly": "False", "BusinessAcceptsBitcoin": "False"}, "categories": "Tiling, Carpeting, Shades & Blinds, Siding, Carpet Installation, Home Services, Flooring", "hours": {"Monday": "8:30-17:0", "Tuesday": "8:30-17:0", "Wednesday": "8:30-17:0", "Thursday": "8:30-17:0", "Friday": "8:30-17:0", "Saturday": "10:0-15:0"}}
{"business_id": "YI-esD_u1PYIE-KniRwFnw", "name": "Grand Canyon Home Services", "address": "9009 N 103rd Ave, Ste 109", "city": "Sun City", "state": "AZ", "postal_code": "85351", "latitude": 33.582017, "longitude": -112.400871, "stars": 5.0, "review_count": 6, "is_open": 1, "attributes": {"BusinessAcceptsCreditCards": "True", "BusinessAcceptsBitcoin": "False", "ByAppointmentOnly": "True"}, "categories": "Electricians, Home Services, Handyman, Air Duct Cleaning, Plumbing, Heating & Air Conditioning/HVAC, Contractors, Local Services, Water Heater Installation/Repair", "hours": {"Monday": "6:0-20:0", "Tuesday": "6:0-20:0", "Wednesday": "6:0-20:0", "Thursday": "6:0-20:0", "Friday": "6:0-20:0", "Saturday": "6:0-16:0"}}
{"business_id": "yFHYDJ32QwNe8CmAIlrd1A", "name": "The Woodmark at Sun City", "address": "17207 N Boswell Blvd", "city": "Sun City", "state": "AZ", "postal_code": "85373", "latitude": 33.6400344, "longitude": -112.2781601, "stars": 4.0, "review_count": 4, "is_open": 1, "attributes": null, "categories": "Assisted Living Facilities, Memory Care, Health & Medical", "hours": null}
{"business_id": "Uh6TOvh-OWhk_HJ5vk61VQ", "name": "Cutting Edge Window Tint", "address": "13213 N 111th Ave", "city": "Sun City", "state": "AZ", "postal_code": "85351", "latitude": 33.6042951171, "longitude": -112.2983578965, "stars": 4.0, "review_count": 12, "is_open": 1, "attributes": {"BusinessAcceptsCreditCards": "True", "ByAppointmentOnly": "True"}, "categories": "Automotive, Auto Parts & Supplies, Auto Glass Services, Home Window Tinting, Home Services", "hours": {"Monday": "8:0-17:0", "Tuesday": "8:0-17:0", "Wednesday": "8:0-17:0", "Thursday": "8:0-17:0", "Friday": "8:0-17:0", "Saturday": "8:0-17:0"}}
{"business_id": "97oWi-N-bq6oMc_j_oAetg", "name": "Xpress Junk Removal", "address": "9715 W Loma Blanca Dr", "city": "Sun City", "state": "AZ", "postal_code": "85351", "latitude": 33.6360217, "longitude": -112.268533, "stars": 5.0, "review_count": 25, "is_open": 1, "attributes": {"BusinessAcceptsCreditCards": "True", "BusinessAcceptsBitcoin": "False"}, "categories": "Junk Removal & Hauling, Recycling Center, Home Cleaning, Local Services, Contractors, Home Services, Self Storage", "hours": {"Monday": "7:0-19:0", "Tuesday": "7:0-19:0", "Wednesday": "7:0-19:0", "Thursday": "7:0-19:0", "Friday": "7:0-19:0", "Saturday": "7:0-19:0"}}
{"business_id": "Pb5AfEWAB8GWlHyy-p-l1g", "name": "Nino's Mexican Food Restaurant", "address": "10659 Grand Ave", "city": "Sun City", "state": "AZ", "postal_code": "85351", "latitude": 33.6007683657, "longitude": -112.287723438, "stars": 3.5, "review_count": 65, "is_open": 1, "attributes": {"RestaurantsTakeOut": "True", "GoodForKids": "True", "WiFi": "u'no'", "BikeParking": "True", "RestaurantsReservations": "False", "GoodForMeal": "{'dessert': False, 'latenight': False, 'lunch': True, 'dinner': True, 'brunch': False, 'breakfast': False}", "Caters": "False", "RestaurantsPriceRange2": "1", "Ambience": "{'romantic': False, 'intimate': False, 'touristy': False, 'hipster': False, 'divey': False, 'classy': False, 'trendy': False, 'upscale': False, 'casual': True}", "BusinessParking": "{'garage': False, 'street': False, 'validated': False, 'lot': True, 'valet': False}", "RestaurantsGoodForGroups": "True", "OutdoorSeating": "False", "HasTV": "False", "Alcohol": "u'full_bar'", "RestaurantsDelivery": "False", "BusinessAcceptsCreditCards": "False", "NoiseLevel": "u'average'", "RestaurantsAttire": "u'casual'"}, "categories": "Restaurants, Mexican", "hours": {"Monday": "11:0-20:0", "Tuesday": "11:0-20:0", "Wednesday": "11:0-20:0", "Thursday": "11:0-20:0", "Friday": "11:0-20:0", "Saturday": "11:0-20:0"}}
{"business_id": "woDYEpjEP8JS5s_-5zdpUw", "name": "Van's Golf Shops", "address": "10001 W Bell Rd, Ste 118", "city": "Sun City", "state": "AZ", "postal_code": "85351", "latitude": 33.6369800955, "longitude": -112.2766900063, "stars": 5.0, "review_count": 10, "is_open": 1, "attributes": {"RestaurantsPriceRange2": "2", "BikeParking": "True", "BusinessAcceptsCreditCards": "True", "BusinessParking": "{'garage': False, 'street': False, 'validated': False, 'lot': False, 'valet': False}"}, "categories": "Active Life, Golf, Shopping, Sporting Goods, Golf Equipment", "hours": {"Monday": "8:0-18:0", "Tuesday": "8:0-18:0", "Wednesday": "8:0-18:0", "Thursday": "8:0-18:0", "Friday": "8:0-18:0", "Saturday": "8:0-17:0", "Sunday": "9:0-16:0"}}
{"business_id": "A0lqkRz91BAhsL4FGYBCEw", "name": "Open Range Pest Control", "address": "11970 W Villa Chula Ln", "city": "Sun City", "state": "AZ", "postal_code": "85373", "latitude": 33.69402, "longitude": -112.31872, "stars": 5.0, "review_count": 13, "is_open": 1, "attributes": {"BusinessAcceptsBitcoin": "False", "BusinessAcceptsCreditCards": "True"}, "categories": "Local Services, Professional Services, Pest Control", "hours": {"Monday": "9:0-17:0", "Tuesday": "9:0-17:0", "Wednesday": "9:0-17:0", "Thursday": "9:0-17:0", "Friday": "9:0-17:0"}}
{"business_id": "259_yfBSoAMrhIb8PgBGtA", "name": "Paradise RV Resort", "address": "10950 W Union Hills Dr", "city": "Sun City", "state": "AZ", "postal_code": "85373", "latitude": 33.654308, "longitude": -112.294858, "stars": 2.5, "review_count": 7, "is_open": 1, "attributes": null, "categories": "Hotels & Travel, Campgrounds, RV Parks", "hours": null}
{"business_id": "1IbrFRdTTdPUG0Ne1pEXJA", "name": "George's Lakeview Cafe", "address": "10502 W Thunderbird Blvd", "city": "Sun City", "state": "AZ", "postal_code": "85351", "latitude": 33.6053090486, "longitude": -112.2859312221, "stars": 4.0, "review_count": 22, "is_open": 1, "attributes": {"WiFi": "'no'", "BusinessParking": "{'garage': False, 'street': False, 'validated': False, 'lot': False, 'valet': False}", "OutdoorSeating": "True", "Caters": "False", "RestaurantsDelivery": "False", "RestaurantsPriceRange2": "1", "Ambience": "{'touristy': False, 'hipster': False, 'romantic': False, 'divey': False, 'intimate': False, 'trendy': False, 'upscale': False, 'classy': False, 'casual': False}", "BusinessAcceptsCreditCards": "True", "RestaurantsTableService": "True", "GoodForMeal": "{'dessert': False, 'latenight': False, 'lunch': False, 'dinner': False, 'brunch': False, 'breakfast': False}", "RestaurantsGoodForGroups": "True", "GoodForKids": "True", "RestaurantsTakeOut": "True", "RestaurantsReservations": "False", "RestaurantsAttire": "'casual'", "BikeParking": "True"}, "categories": "American (Traditional), Restaurants, Mediterranean, Greek", "hours": {"Monday": "7:0-20:0", "Tuesday": "7:0-20:0", "Wednesday": "7:0-20:0", "Thursday": "7:0-20:0", "Friday": "7:0-20:0", "Saturday": "7:0-20:0", "Sunday": "7:0-15:0"}}
{"business_id": "lb6JFVh38NsXBHyLixvKjg", "name": "Jays Vapes & Hookah", "address": "9420 W Bell Rd, Ste 104", "city": "Sun City", "state": "AZ", "postal_code": "85351", "latitude": 33.638553, "longitude": -112.262725, "stars": 4.0, "review_count": 4, "is_open": 1, "attributes": {"RestaurantsPriceRange2": "2", "BusinessParking": "{'garage': False, 'street': False, 'validated': False, 'lot': False, 'valet': False}", "BusinessAcceptsCreditCards": "True", "WheelchairAccessible": "True", "BikeParking": "True"}, "categories": "Tobacco Shops, Vape Shops, Shopping", "hours": {"Monday": "10:0-20:0", "Tuesday": "10:0-20:0", "Wednesday": "10:0-20:0", "Thursday": "10:0-20:0", "Friday": "10:0-20:0", "Saturday": "10:0-20:0"}}
{"business_id": "00so-3NuawQ98XKLPMVFLg", "name": "La Petite Cafe", "address": "10503 W Thunderbird Blvd", "city": "Sun City", "state": "AZ", "postal_code": "85351", "latitude": 33.6042022705, "longitude": -112.2859344482, "stars": 2.0, "review_count": 4, "is_open": 1, "attributes": {"NoiseLevel": "u'quiet'", "GoodForKids": "False", "RestaurantsAttire": "u'casual'", "HasTV": "False", "Alcohol": "u'none'", "RestaurantsPriceRange2": "1", "RestaurantsTakeOut": "True", "RestaurantsDelivery": "True", "OutdoorSeating": "False", "Ambience": "{'romantic': False, 'intimate': False, 'classy': False, 'hipster': False, 'divey': False, 'touristy': False, 'trendy': False, 'upscale': False, 'casual': False}", "BusinessAcceptsCreditCards": "True", "BusinessParking": "{'garage': False, 'street': False, 'validated': False, 'lot': False, 'valet': False}", "RestaurantsGoodForGroups": "False"}, "categories": "Sandwiches, Breakfast & Brunch, Restaurants", "hours": null}
{"business_id": "-HbTh_spJOeyEbdj4geK2Q", "name": "Jack in The Box", "address": "9906 W Thunderbird Blvd", "city": "Sun City", "state": "AZ", "postal_code": "85351", "latitude": 33.6096723, "longitude": -112.2682769, "stars": 3.0, "review_count": 10, "is_open": 1, "attributes": {"OutdoorSeating": "True", "BikeParking": "True", "BusinessAcceptsCreditCards": "True", "RestaurantsTakeOut": "True", "RestaurantsReservations": "False", "Ambience": "{'romantic': False, 'intimate': False, 'classy': False, 'hipster': False, 'divey': False, 'touristy': False, 'trendy': False, 'upscale': False, 'casual': False}", "NoiseLevel": "'average'", "RestaurantsGoodForGroups": "True", "BusinessParking": "{'garage': False, 'street': False, 'validated': False, 'lot': False, 'valet': False}", "RestaurantsAttire": "'casual'", "HasTV": "False", "Alcohol": "'none'", "Caters": "False", "GoodForKids": "True", "RestaurantsDelivery": "False", "RestaurantsPriceRange2": "1"}, "categories": "Restaurants, Fast Food", "hours": null}
{"business_id": "KXxmP6E5K7eg8YVcW1XOxA", "name": "Empire Blinds", "address": "", "city": "Sun City", "state": "AZ", "postal_code": "85351", "latitude": 33.6020658, "longitude": -112.280129, "stars": 5.0, "review_count": 7, "is_open": 1, "attributes": {"ByAppointmentOnly": "True", "BusinessAcceptsCreditCards": "True"}, "categories": "Shutters, Home Services, Shades & Blinds, Interior Design", "hours": {"Monday": "9:0-12:0", "Tuesday": "8:0-17:0", "Wednesday": "8:0-17:0", "Thursday": "8:0-17:0", "Friday": "8:0-17:0", "Saturday": "9:0-16:0"}}
{"business_id": "sQd_bec2pPj8cIBkXox9mA", "name": "Quick Stop Title and Registration", "address": "9887 W Bell Rd", "city": "Sun City", "state": "AZ", "postal_code": "85351", "latitude": 33.637789, "longitude": -112.272312, "stars": 4.5, "review_count": 14, "is_open": 1, "attributes": {"BusinessAcceptsCreditCards": "True"}, "categories": "Travel Services, Hotels & Travel, Departments of Motor Vehicles, Passport & Visa Services, Automotive, Local Services, Public Services & Government, Registration Services, Notaries", "hours": {"Monday": "9:0-17:30", "Tuesday": "9:0-17:30", "Wednesday": "9:0-17:30", "Thursday": "9:0-17:30", "Friday": "9:0-17:30", "Saturday": "9:0-17:0"}}
{"business_id": "nI2jO8MvyotwK8sVLlCGZA", "name": "Rightway Pharmacy", "address": "10503 West Thunderbird Blvd", "city": "Sun City", "state": "AZ", "postal_code": "85351", "latitude": 33.6044937, "longitude": -112.2861831, "stars": 3.5, "review_count": 3, "is_open": 1, "attributes": {"BusinessAcceptsCreditCards": "True", "WheelchairAccessible": "True", "BusinessParking": "{'garage': True, 'street': False, 'validated': False, 'lot': False, 'valet': False}"}, "categories": "Shopping, Health & Medical, Drugstores, Personal Care Services", "hours": {"Monday": "5:0-17:0", "Tuesday": "5:0-17:0", "Wednesday": "5:0-17:0", "Thursday": "5:0-17:0", "Friday": "5:0-17:0", "Saturday": "0:1-13:0"}}
{"business_id": "NcgN_lnQ4vgZAllc_1Ro2g", "name": "Carrow's Family Restaurant", "address": "9889 W Bell Road", "city": "Sun City", "state": "AZ", "postal_code": "85351", "latitude": 33.6379617, "longitude": -112.2728617, "stars": 2.5, "review_count": 12, "is_open": 0, "attributes": {"RestaurantsGoodForGroups": "True", "Ambience": "{'romantic': False, 'intimate': False, 'classy': False, 'hipster': False, 'divey': False, 'touristy': False, 'trendy': False, 'upscale': False, 'casual': False}", "BusinessParking": "{'garage': False, 'street': False, 'validated': False, 'lot': False, 'valet': False}", "RestaurantsDelivery": "False", "WiFi": "u'no'", "RestaurantsTakeOut": "True", "RestaurantsAttire": "u'casual'", "NoiseLevel": "u'average'", "BusinessAcceptsCreditCards": "True", "RestaurantsReservations": "False", "HasTV": "False", "RestaurantsPriceRange2": "2", "Alcohol": "'beer_and_wine'", "BikeParking": "True", "OutdoorSeating": "False", "GoodForKids": "True"}, "categories": "American (Traditional), Diners, Restaurants", "hours": null}
{"business_id": "edIbBSWAlhXXpjFsBvU1fw", "name": "Centra Internal Medicine", "address": "13000 N 103rd Ave, Ste 59", "city": "Sun City", "state": "AZ", "postal_code": "85351", "latitude": 33.6018498, "longitude": -112.2817124, "stars": 1.5, "review_count": 3, "is_open": 1, "attributes": {"ByAppointmentOnly": "False", "AcceptsInsurance": "True", "BusinessAcceptsCreditCards": "True"}, "categories": "Weight Loss Centers, Doctors, Internal Medicine, Health & Medical", "hours": {"Monday": "0:0-0:0", "Tuesday": "9:0-17:0", "Wednesday": "9:0-17:0", "Thursday": "9:0-17:0", "Friday": "9:0-17:0"}}
{"business_id": "-yL5oGeXMwUaq4ysDwF3Lw", "name": "Banner Boswell Memorial Hospital", "address": "10401 W Thunderbird Blvd", "city": "Sun City", "state": "AZ", "postal_code": "85351", "latitude": 33.6042603, "longitude": -112.2837994, "stars": 3.0, "review_count": 23, "is_open": 1, "attributes": {"ByAppointmentOnly": "False", "BusinessAcceptsCreditCards": "True", "AcceptsInsurance": "True"}, "categories": "Hospitals, Health & Medical", "hours": null}
{"business_id": "u0X8gUktUCn7BSwu1iFezg", "name": "John Wallick Jewelers", "address": "10050 W Bell Rd, Ste 32", "city": "Sun City", "state": "AZ", "postal_code": "85351", "latitude": 33.6394264, "longitude": -112.2763421, "stars": 5.0, "review_count": 6, "is_open": 1, "attributes": {"BikeParking": "True", "BusinessAcceptsCreditCards": "True", "BusinessParking": "{'garage': False, 'street': True, 'validated': False, 'lot': True, 'valet': False}", "ByAppointmentOnly": "False", "RestaurantsPriceRange2": "2", "BusinessAcceptsBitcoin": "False"}, "categories": "Local Services, Jewelry Repair, Shopping, Jewelry", "hours": {"Monday": "9:30-16:0", "Tuesday": "9:30-16:0", "Wednesday": "9:30-16:0", "Thursday": "9:30-16:0", "Friday": "9:30-16:0", "Saturday": "9:30-15:0"}}
{"business_id": "DqcTLlAsy0foSPlhuByy1w", "name": "H & S Accounting, CPA", "address": "10225 W Thunderbird Blvd, Ste A", "city": "Sun City", "state": "AZ", "postal_code": "85351", "latitude": 33.6045916, "longitude": -112.2799638, "stars": 5.0, "review_count": 5, "is_open": 1, "attributes": null, "categories": "Accountants, Professional Services, Tax Services, Business Consulting, Financial Services", "hours": {"Monday": "8:0-17:0", "Tuesday": "8:0-17:0", "Wednesday": "8:0-17:0", "Thursday": "8:0-17:0", "Friday": "8:0-17:0"}}
{"business_id": "uytrX0s6etYPCcMVC07KJw", "name": "Jade Star", "address": "10050 W Bell Rd, Ste 8", "city": "Sun City", "state": "AZ", "postal_code": "85351", "latitude": 33.6394962159, "longitude": -112.276363112, "stars": 3.0, "review_count": 46, "is_open": 1, "attributes": {"WiFi": "'no'", "BikeParking": "True", "RestaurantsAttire": "'casual'", "RestaurantsGoodForGroups": "True", "HasTV": "False", "OutdoorSeating": "False", "RestaurantsPriceRange2": "1", "Ambience": "{'romantic': False, 'intimate': False, 'classy': False, 'hipster': False, 'divey': False, 'touristy': False, 'trendy': False, 'upscale': False, 'casual': False}", "GoodForKids": "True", "Alcohol": "u'full_bar'", "RestaurantsTakeOut": "True", "NoiseLevel": "u'quiet'", "BusinessParking": "{'garage': False, 'street': False, 'validated': False, 'lot': True, 'valet': False}", "RestaurantsDelivery": "True", "RestaurantsReservations": "True", "BusinessAcceptsCreditCards": "True"}, "categories": "Seafood, Chinese, Restaurants, Chicken Wings", "hours": {"Monday": "11:0-21:0", "Tuesday": "11:0-21:0", "Wednesday": "11:0-21:0", "Thursday": "11:0-21:0", "Friday": "11:0-21:0", "Saturday": "12:0-21:0", "Sunday": "12:0-21:0"}}
{"business_id": "1Y4ylgNBzo-GnP-xncpy1w", "name": "Bright Horizons At Boswell", "address": "10457 W Thunderbird Blvd", "city": "Sun City", "state": "AZ", "postal_code": "85351", "latitude": 33.6020239, "longitude": -112.2841516, "stars": 4.0, "review_count": 5, "is_open": 1, "attributes": {"BusinessAcceptsCreditCards": "False"}, "categories": "Preschools, Education, Child Care & Day Care, Local Services", "hours": {"Monday": "5:30-18:30", "Tuesday": "5:30-18:30", "Wednesday": "5:30-18:30", "Thursday": "5:30-18:30", "Friday": "5:30-18:30"}}
{"business_id": "mn0tkYG6DLkckwKefAtlDQ", "name": "Grand Paws Animal Clinic", "address": "9420 W Bell Rd Ste 102", "city": "Sun City", "state": "AZ", "postal_code": "85351", "latitude": 33.638553, "longitude": -112.262725, "stars": 3.5, "review_count": 3, "is_open": 0, "attributes": null, "categories": "Pets, Veterinarians", "hours": null}
{"business_id": "OJ43Bwndc8LzrXQPw04nmw", "name": "Greenlight Hydroponics", "address": "9421 W Bell Rd", "city": "Sun City", "state": "AZ", "postal_code": "85351", "latitude": 33.637694, "longitude": -112.262713, "stars": 3.5, "review_count": 3, "is_open": 0, "attributes": {"RestaurantsPriceRange2": "1"}, "categories": "Home & Garden, Shopping, Food, Do-It-Yourself Food, Nurseries & Gardening", "hours": {"Monday": "10:0-19:0", "Tuesday": "10:0-19:0", "Wednesday": "10:0-19:0", "Thursday": "10:0-19:0", "Friday": "10:0-19:0", "Saturday": "11:0-17:0", "Sunday": "12:0-16:0"}}
{"business_id": "-WOgxfwCEkt-6SVcSjdU0w", "name": "Tennis Cabana", "address": "10001 W Bell Rd", "city": "Sun City", "state": "AZ", "postal_code": "85351", "latitude": 33.6372393, "longitude": -112.2754603, "stars": 5.0, "review_count": 3, "is_open": 1, "attributes": {"GoodForKids": "False"}, "categories": "Active Life, Tennis", "hours": null}
{"business_id": "jeAUtJ2D7rcLHmE3Ho5j8Q", "name": "The Plumber Guy", "address": "18700 N 107th Ave, Ste 22", "city": "Sun City", "state": "AZ", "postal_code": "85373", "latitude": 33.6531975, "longitude": -112.2912127, "stars": 4.0, "review_count": 16, "is_open": 1, "attributes": {"ByAppointmentOnly": "False", "BusinessAcceptsBitcoin": "False", "WiFi": "'free'", "BusinessParking": "{'garage': False, 'street': False, 'validated': False, 'lot': True, 'valet': False}", "BusinessAcceptsCreditCards": "True", "Smoking": "u'outdoor'"}, "categories": "Septic Services, Water Heater Installation/Repair, Local Services, Plumbing, Appliances & Repair, Contractors, Utilities, Water Purification Services, Home Services", "hours": {"Monday": "0:0-0:0", "Tuesday": "0:0-0:0", "Wednesday": "0:0-0:0", "Thursday": "0:0-0:0", "Friday": "0:0-0:0", "Saturday": "0:0-0:0", "Sunday": "0:0-0:0"}}
{"business_id": "ao8JcAh-ctKzlREk28UP4g", "name": "All Greens Dispensary", "address": "10032 W Bell Rd, Ste 100", "city": "Sun City", "state": "AZ", "postal_code": "85351", "latitude": 33.6385168, "longitude": -112.2759843, "stars": 2.5, "review_count": 11, "is_open": 1, "attributes": {"BikeParking": "False", "RestaurantsPriceRange2": "1", "BusinessAcceptsBitcoin": "False", "BusinessAcceptsCreditCards": "False", "ByAppointmentOnly": "False", "BusinessParking": "{'garage': False, 'street': False, 'validated': False, 'lot': False, 'valet': False}"}, "categories": "Cannabis Dispensaries, Shopping, Cannabis Clinics, Health & Medical", "hours": {"Monday": "10:0-18:0", "Tuesday": "10:0-18:0", "Wednesday": "7:0-22:0", "Thursday": "10:0-18:0", "Friday": "7:0-22:0", "Saturday": "7:0-22:0", "Sunday": "7:0-22:0"}}
{"business_id": "5x4djK7de5A3m7i2eJHRVw", "name": "Cornerstone Flooring Brokers Sun City", "address": "10001 W Bell Rd, Ste 109", "city": "Sun City", "state": "AZ", "postal_code": "85351", "latitude": 33.6374021523, "longitude": -112.2766967118, "stars": 3.5, "review_count": 3, "is_open": 1, "attributes": {"BusinessAcceptsCreditCards": "True"}, "categories": "Carpeting, Rugs, Shopping, Home Services, Home & Garden, Flooring", "hours": {"Monday": "9:0-17:0", "Tuesday": "9:0-17:0", "Wednesday": "9:0-17:0", "Thursday": "9:0-17:0", "Friday": "9:0-17:0"}}
{"business_id": "1bV-6YIcnHttzAlgyM41Vw", "name": "AZ Pool and Outdoor", "address": "", "city": "Sun City", "state": "AZ", "postal_code": "85373", "latitude": 33.6825711, "longitude": -112.3039728, "stars": 3.5, "review_count": 3, "is_open": 1, "attributes": null, "categories": "Hot Tub & Pool, Shopping, Home & Garden, Home Services, Pool & Hot Tub Service, Contractors", "hours": {"Monday": "9:0-17:0", "Tuesday": "9:0-17:0", "Wednesday": "9:0-17:0", "Thursday": "9:0-17:0", "Friday": "9:0-17:0"}}
{"business_id": "eCSY_AxqDr_I_MRtAWtzGg", "name": "Banner Boswell Rehabilitation Center", "address": "10601 W Santa Fe Dr", "city": "Sun City", "state": "AZ", "postal_code": "85351", "latitude": 33.6031198, "longitude": -112.2873008, "stars": 2.5, "review_count": 3, "is_open": 1, "attributes": null, "categories": "Rehabilitation Center, Health & Medical", "hours": null}
{"business_id": "pcreu_9klIorF3DTguh1Rg", "name": "Coco's Family Restaurant", "address": "10243 Grand Ave", "city": "Sun City", "state": "AZ", "postal_code": "85351", "latitude": 33.5994789, "longitude": -112.2803216, "stars": 2.0, "review_count": 11, "is_open": 0, "attributes": {"OutdoorSeating": "False", "HasTV": "False", "RestaurantsTakeOut": "True", "BusinessAcceptsCreditCards": "True", "Alcohol": "'beer_and_wine'", "RestaurantsGoodForGroups": "True", "GoodForKids": "True", "RestaurantsReservations": "False", "RestaurantsDelivery": "False", "RestaurantsAttire": "'casual'", "RestaurantsPriceRange2": "1"}, "categories": "Bakeries, Food, American (Traditional), Restaurants", "hours": null}
{"business_id": "6kpF5FQz6k9CGmocM2Hl2A", "name": "Precious Paws Pet Salon", "address": "10749 W Grand Ave, Ste 8", "city": "Sun City", "state": "AZ", "postal_code": "85351", "latitude": 33.599243, "longitude": -112.2792675, "stars": 4.5, "review_count": 12, "is_open": 1, "attributes": null, "categories": "Pet Services, Pet Groomers, Pets", "hours": {"Tuesday": "7:30-15:0", "Wednesday": "7:30-15:0", "Thursday": "7:30-15:0", "Friday": "7:30-15:0", "Saturday": "7:30-15:0"}}
{"business_id": "qYJGANkrRrI-aqfW1BaHuw", "name": "Sun Camera", "address": "10001 W Bell Rd, Ste 146", "city": "Sun City", "state": "AZ", "postal_code": "85351", "latitude": 33.63698, "longitude": -112.274774, "stars": 4.5, "review_count": 11, "is_open": 1, "attributes": {"BusinessAcceptsCreditCards": "True", "BikeParking": "True", "BusinessParking": "{'garage': False, 'street': False, 'validated': False, 'lot': True, 'valet': False}", "RestaurantsPriceRange2": "2"}, "categories": "Shopping, Photography Stores & Services", "hours": null}
{"business_id": "OWV8yrZsQhMDFl2l0l9H1w", "name": "Arizona EZ-Pawn", "address": "9421 W Bell Rd, Ste 101", "city": "Sun City", "state": "AZ", "postal_code": "85351", "latitude": 33.6376933, "longitude": -112.2627583, "stars": 4.0, "review_count": 10, "is_open": 1, "attributes": {"RestaurantsPriceRange2": "1", "BusinessAcceptsCreditCards": "True", "BusinessParking": "{'garage': False, 'street': False, 'validated': False, 'lot': False, 'valet': False}", "BikeParking": "True"}, "categories": "Gold Buyers, Financial Services, Jewelry, Pawn Shops, Title Loans, Shopping", "hours": {"Monday": "10:0-19:0", "Tuesday": "10:0-19:0", "Wednesday": "10:0-19:0", "Thursday": "10:0-19:0", "Friday": "10:0-19:0", "Saturday": "10:0-17:0", "Sunday": "12:0-17:0"}}
{"business_id": "VpZYWGueVqC1A8PN3btB3w", "name": "Campana Barbers", "address": "9827 W Bell Rd", "city": "Sun City", "state": "AZ", "postal_code": "85351", "latitude": 33.6371239, "longitude": -112.2711576, "stars": 3.5, "review_count": 5, "is_open": 1, "attributes": {"BusinessAcceptsCreditCards": "True", "ByAppointmentOnly": "False", "RestaurantsPriceRange2": "1"}, "categories": "Barbers, Beauty & Spas", "hours": null}
{"business_id": "o3Wj6ohtPnvOJ9l0d_FT9A", "name": "Golden Star Chinese Food Restaurant", "address": "10050 W Bell Rd", "city": "Sun City", "state": "AZ", "postal_code": "85351", "latitude": 33.6396367, "longitude": -112.2758645, "stars": 2.5, "review_count": 5, "is_open": 0, "attributes": {"RestaurantsTakeOut": "True", "GoodForKids": "True", "Ambience": "{'romantic': False, 'intimate': False, 'touristy': False, 'hipster': False, 'divey': False, 'classy': False, 'trendy': False, 'casual': False}", "BusinessAcceptsCreditCards": "True", "RestaurantsDelivery": "True", "NoiseLevel": "u'average'", "RestaurantsAttire": "u'casual'", "OutdoorSeating": "False", "Caters": "True", "RestaurantsPriceRange2": "1", "BusinessParking": "{'garage': False, 'street': False, 'validated': False, 'lot': True, 'valet': False}", "RestaurantsReservations": "True", "RestaurantsGoodForGroups": "True", "Alcohol": "u'full_bar'"}, "categories": "Chinese, Restaurants", "hours": null}
{"business_id": "4x242zFC9YKuos3ZeX01wg", "name": "Floors n More", "address": "9855 W Bell Rd", "city": "Sun City", "state": "AZ", "postal_code": "85351", "latitude": 33.6371332, "longitude": -112.2720409, "stars": 4.5, "review_count": 16, "is_open": 1, "attributes": {"ByAppointmentOnly": "True", "BusinessAcceptsCreditCards": "True"}, "categories": "Home Services, Tiling, Carpet Installation, Carpeting, Flooring", "hours": {"Monday": "9:0-17:0", "Tuesday": "9:0-17:0", "Wednesday": "9:0-17:0", "Thursday": "9:0-17:0", "Friday": "9:0-17:0", "Saturday": "9:0-13:0"}}
{"business_id": "6nXGWiwT6L6bZ0N68tFCEQ", "name": "Romen's Gyros", "address": "10050 W Bell Rd", "city": "Sun City", "state": "AZ", "postal_code": "85351", "latitude": 33.6396113, "longitude": -112.276124, "stars": 2.0, "review_count": 4, "is_open": 1, "attributes": {"RestaurantsPriceRange2": "1", "BusinessParking": "{'garage': False, 'street': False, 'validated': False, 'lot': False, 'valet': False}"}, "categories": "Restaurants, Greek", "hours": null}
{"business_id": "FWle3DWp1l1dIVj3rRDPew", "name": "The Wild Flower AZ", "address": "10301 W Spanish Moss Ln", "city": "Sun City", "state": "AZ", "postal_code": "85373", "latitude": 33.597507, "longitude": -112.271911, "stars": 5.0, "review_count": 3, "is_open": 1, "attributes": null, "categories": "Bridal, Flowers & Gifts, Florists, Shopping", "hours": {"Monday": "8:0-19:0", "Tuesday": "8:0-19:0", "Wednesday": "8:0-19:0", "Thursday": "8:0-19:0", "Friday": "8:0-19:0", "Saturday": "8:0-19:0", "Sunday": "8:0-19:0"}}
{"business_id": "WOUO_lu5DUhWM_3eh9es4w", "name": "Sun City Animal Hospital", "address": "10026 W Santa Fe Dr", "city": "Sun City", "state": "AZ", "postal_code": "85351", "latitude": 33.5994287, "longitude": -112.2749597, "stars": 4.5, "review_count": 25, "is_open": 1, "attributes": null, "categories": "Pet Adoption, Pet Sitting, Veterinarians, Pets, Pet Groomers, Pet Boarding, Pet Services", "hours": {"Monday": "7:30-18:0", "Tuesday": "7:30-17:0", "Wednesday": "7:30-17:0", "Thursday": "7:30-17:0", "Friday": "7:30-18:0", "Saturday": "7:0-13:0"}}
{"business_id": "ELPhr2CAhRub44Vdwc7uyw", "name": "Paws at Peace", "address": "", "city": "Sun City", "state": "AZ", "postal_code": "85373", "latitude": 33.6825711, "longitude": -112.3039728, "stars": 5.0, "review_count": 7, "is_open": 1, "attributes": null, "categories": "Veterinarians, Pets, Pet Services", "hours": null}
{"business_id": "sWm7MzyzqfifbBysBCh44Q", "name": "Sun City Auto Service", "address": "10014 W Santa Fe Dr", "city": "Sun City", "state": "AZ", "postal_code": "85351", "latitude": 33.5989811, "longitude": -112.2744371, "stars": 4.0, "review_count": 10, "is_open": 1, "attributes": {"BusinessAcceptsCreditCards": "True"}, "categories": "Oil Change Stations, Auto Repair, Tires, Auto Parts & Supplies, Automotive", "hours": {"Monday": "0:0-0:0", "Tuesday": "7:30-17:0", "Wednesday": "7:30-17:0", "Thursday": "7:30-17:0", "Friday": "7:30-17:0"}}
{"business_id": "zp8EcaN9tvG8C_q5cVOtKg", "name": "Joseph H Chang, DDS", "address": "10147 Grand Ave, Ste B2, Sun City Dental Care", "city": "Sun City", "state": "AZ", "postal_code": "85351", "latitude": 33.599052, "longitude": -112.279256, "stars": 5.0, "review_count": 5, "is_open": 1, "attributes": {"ByAppointmentOnly": "False"}, "categories": "Cosmetic Dentists, Dentists, General Dentistry, Health & Medical", "hours": {"Tuesday": "8:0-14:0", "Wednesday": "8:0-13:0", "Friday": "8:0-14:0"}}
{"business_id": "Pkf9nJuBI6_LJGPac-J7mA", "name": "Colby Management", "address": "17220 N Boswell Blvd, Ste 140", "city": "Sun City", "state": "AZ", "postal_code": "85351", "latitude": 33.639733, "longitude": -112.279221, "stars": 2.0, "review_count": 4, "is_open": 1, "attributes": {"ByAppointmentOnly": "False"}, "categories": "Home Services, Real Estate, Property Management", "hours": {"Monday": "8:0-15:0", "Tuesday": "8:0-15:0", "Wednesday": "8:0-15:0", "Thursday": "8:0-15:0", "Friday": "8:0-15:0"}}
{"business_id": "YlQjjoZqSlgZBwWgOaACZQ", "name": "Cigna", "address": "9069 W Thunderbird Rd", "city": "Sun City", "state": "AZ", "postal_code": "85351", "latitude": 33.6093444, "longitude": -112.254329, "stars": 1.0, "review_count": 6, "is_open": 1, "attributes": {"BikeParking": "False", "BusinessAcceptsCreditCards": "True", "RestaurantsPriceRange2": "1", "ByAppointmentOnly": "True"}, "categories": "Eyewear & Opticians, Insurance, Urgent Care, Doctors, Financial Services, Drugstores, Shopping, Audiologist, Health & Medical", "hours": {"Monday": "7:0-17:0", "Tuesday": "7:0-17:0", "Wednesday": "7:0-17:0", "Thursday": "7:0-17:0", "Friday": "7:0-17:0"}}
{"business_id": "jLdy5xNLk1QvFi5uWliL2w", "name": "Valley Beauty Salon", "address": "13606 N 99th Ave", "city": "Sun City", "state": "AZ", "postal_code": "85351", "latitude": 33.6075688, "longitude": -112.2690198, "stars": 4.5, "review_count": 3, "is_open": 1, "attributes": null, "categories": "Hair Salons, Beauty & Spas", "hours": null}
{"business_id": "VezMq5tZxqZf80MDrlLQLw", "name": "Sun City Cleaners", "address": "13002 N 107th Ave", "city": "Sun City", "state": "AZ", "postal_code": "85351", "latitude": 33.6016104498, "longitude": -112.2904415759, "stars": 1.5, "review_count": 8, "is_open": 1, "attributes": {"RestaurantsPriceRange2": "3", "BikeParking": "True", "BusinessAcceptsBitcoin": "False", "BusinessParking": "{'garage': False, 'street': False, 'validated': False, 'lot': True, 'valet': False}", "BusinessAcceptsCreditCards": "True", "WiFi": "u'no'"}, "categories": "Sewing & Alterations, Local Services, Dry Cleaning & Laundry, Laundry Services", "hours": {"Monday": "6:0-17:0", "Tuesday": "6:0-17:0", "Wednesday": "6:0-17:0", "Thursday": "6:0-17:0", "Friday": "6:0-17:0", "Saturday": "13:0-16:0"}}
{"business_id": "CdqDmKlSVrTBigSZnpQYug", "name": "Pizza Hut", "address": "10050 W Bell Rd, Ste 22", "city": "Sun City", "state": "AZ", "postal_code": "85351", "latitude": 33.6395295139, "longitude": -112.2766101541, "stars": 1.5, "review_count": 7, "is_open": 1, "attributes": {"RestaurantsPriceRange2": "1", "RestaurantsDelivery": "True", "Caters": "False", "BusinessAcceptsCreditCards": "True"}, "categories": "Chicken Wings, Italian, Restaurants, Pizza", "hours": null}
{"business_id": "LRlUBt7ubV6ZuOlk0hnawA", "name": "Valley Estate Sale Company", "address": "", "city": "Sun City", "state": "AZ", "postal_code": "85372", "latitude": 33.6381822, "longitude": -112.2704757, "stars": 2.5, "review_count": 9, "is_open": 1, "attributes": {"BusinessAcceptsCreditCards": "True", "RestaurantsPriceRange2": "3", "BusinessParking": "{'garage': False, 'street': False, 'validated': False, 'lot': False, 'valet': False}"}, "categories": "Real Estate, Shopping, Estate Liquidation, Thrift Stores, Home Services", "hours": {"Monday": "9:0-17:0", "Tuesday": "9:0-17:0", "Wednesday": "9:0-17:0", "Thursday": "9:0-17:0", "Friday": "9:0-17:0", "Saturday": "9:0-17:0", "Sunday": "9:0-17:0"}}
{"business_id": "UXrbMbgg3VZ5hkPoCgs67A", "name": "Sun Valley Quilts", "address": "9857 W Bell Rd", "city": "Sun City", "state": "AZ", "postal_code": "85351", "latitude": 33.6371379, "longitude": -112.2721181, "stars": 4.5, "review_count": 4, "is_open": 1, "attributes": null, "categories": "Professional Services", "hours": {"Monday": "9:0-17:0", "Tuesday": "9:0-17:0", "Wednesday": "9:0-17:0", "Thursday": "9:0-17:0", "Friday": "9:0-17:0", "Saturday": "9:0-16:0", "Sunday": "12:0-16:0"}}
{"business_id": "ZYQYgXPPjAwA0AtY8ndXmw", "name": "Can-Do Engraving & Specialties", "address": "15434 N 99th Ave", "city": "Sun City", "state": "AZ", "postal_code": "85351", "latitude": 33.6228561, "longitude": -112.2713446, "stars": 5.0, "review_count": 3, "is_open": 1, "attributes": {"BusinessParking": "{'garage': False, 'street': False, 'validated': False, 'lot': False, 'valet': False}", "BusinessAcceptsCreditCards": "True"}, "categories": "Arts & Crafts, Embroidery & Crochet, Screen Printing, Engraving, Shopping, Local Services", "hours": {"Monday": "0:0-0:0", "Tuesday": "9:0-14:0", "Wednesday": "9:0-14:0", "Thursday": "9:0-14:0", "Friday": "9:0-14:0"}}
{"business_id": "2CMFcgwzXkwszGqwkZ0J4A", "name": "Country Spice Shack", "address": "18700 N 107th Ave, Ste 32", "city": "Sun City", "state": "AZ", "postal_code": "85373", "latitude": 33.6531975, "longitude": -112.2912127, "stars": 5.0, "review_count": 4, "is_open": 1, "attributes": {"RestaurantsTakeOut": "False"}, "categories": "Olive Oil, Herbs & Spices, Specialty Food, Food", "hours": {"Monday": "9:0-14:0", "Tuesday": "9:0-14:0", "Thursday": "9:0-16:0", "Friday": "9:0-16:0", "Saturday": "9:0-16:0"}}
{"business_id": "RXhMtim4RXqUNbw9KeRMwQ", "name": "Sunshine Service", "address": "9980 W Santa Fe Dr", "city": "Sun City", "state": "AZ", "postal_code": "85351", "latitude": 33.5993754, "longitude": -112.2737023, "stars": 5.0, "review_count": 3, "is_open": 1, "attributes": {"BusinessParking": "{'garage': False, 'street': False, 'validated': False, 'lot': False, 'valet': False}", "RestaurantsPriceRange2": "1", "BusinessAcceptsCreditCards": "False"}, "categories": "Medical Supplies, Local Services, Shopping, Active Life, Community Service/Non-Profit", "hours": null}
{"business_id": "aLJrD7AwySfSvYx9fNvJRg", "name": "New China Super Buffet", "address": "10801 Grand Ave", "city": "Sun City", "state": "AZ", "postal_code": "85351", "latitude": 33.603332, "longitude": -112.294278, "stars": 1.5, "review_count": 5, "is_open": 0, "attributes": {"BusinessParking": "{'garage': False, 'street': False, 'validated': False, 'lot': False, 'valet': False}", "RestaurantsDelivery": "False", "RestaurantsAttire": "u'casual'", "RestaurantsPriceRange2": "1", "Caters": "True", "Ambience": "{'romantic': False, 'intimate': False, 'touristy': False, 'hipster': False, 'divey': False, 'classy': False, 'trendy': False, 'upscale': False, 'casual': False}", "OutdoorSeating": "False", "Alcohol": "u'none'", "RestaurantsTakeOut": "True", "GoodForKids": "True", "RestaurantsReservations": "True", "RestaurantsGoodForGroups": "True", "BusinessAcceptsCreditCards": "True", "NoiseLevel": "u'average'"}, "categories": "Restaurants, Chinese, Buffets", "hours": null}
{"business_id": "AJDIJHeA9j8OvHfecwS8Kg", "name": "New England Clock Shop", "address": "9835 W Bell Rd", "city": "Sun City", "state": "AZ", "postal_code": "85351", "latitude": 33.6371453, "longitude": -112.2713854, "stars": 4.5, "review_count": 17, "is_open": 1, "attributes": {"RestaurantsPriceRange2": "3", "BusinessAcceptsCreditCards": "True", "ByAppointmentOnly": "False", "BusinessParking": "{'garage': False, 'street': False, 'validated': False, 'lot': False, 'valet': False}"}, "categories": "Watches, Shopping", "hours": null}
{"business_id": "1GLJHF1aIrKujEmfEBHPYQ", "name": "Sand Highway RV Rentals", "address": "11819 W Harmony Ln", "city": "Sun City", "state": "AZ", "postal_code": "85373", "latitude": 33.6767339, "longitude": -112.3149467, "stars": 5.0, "review_count": 27, "is_open": 1, "attributes": {"GoodForKids": "True", "BikeParking": "True", "BusinessAcceptsCreditCards": "True", "WheelchairAccessible": "True", "ByAppointmentOnly": "True", "BusinessParking": "{'garage': False, 'street': False, 'validated': False, 'lot': True, 'valet': False}"}, "categories": "Active Life, ATV Rentals/Tours, Trailer Rental, RV Rental, Automotive, Hotels & Travel", "hours": {"Monday": "0:0-0:0", "Tuesday": "9:0-17:0", "Wednesday": "9:0-17:0", "Thursday": "9:0-17:0", "Friday": "9:0-17:0", "Saturday": "9:0-12:0"}}
{"business_id": "6CpAWkTcqqNtGAfOsPeFUw", "name": "Arby's", "address": "17032 N 99th Ave", "city": "Sun City", "state": "AZ", "postal_code": "85373", "latitude": 33.6392628656, "longitude": -112.2752561682, "stars": 3.5, "review_count": 16, "is_open": 1, "attributes": {"HasTV": "True", "RestaurantsGoodForGroups": "True", "BikeParking": "True", "OutdoorSeating": "True", "RestaurantsPriceRange2": "2", "BusinessParking": "{'garage': False, 'street': False, 'validated': False, 'lot': False, 'valet': False}", "BusinessAcceptsCreditCards": "True", "GoodForKids": "True", "Ambience": "{'touristy': False, 'hipster': False, 'romantic': False, 'divey': False, 'intimate': False, 'trendy': False, 'upscale': False, 'classy': False, 'casual': False}", "Caters": "False", "RestaurantsReservations": "False", "RestaurantsDelivery": "False", "RestaurantsTakeOut": "True", "NoiseLevel": "u'average'", "RestaurantsAttire": "u'casual'", "Alcohol": "u'none'"}, "categories": "Steakhouses, Sandwiches, American (Traditional), Fast Food, Restaurants, American (New)", "hours": {"Monday": "7:0-22:0", "Tuesday": "7:0-22:0", "Wednesday": "7:0-22:0", "Thursday": "7:0-22:0", "Friday": "7:0-22:0", "Saturday": "8:0-22:0", "Sunday": "9:0-21:0"}}
{"business_id": "j3WPutOh9WvuR9ol2Tjabw", "name": "Kinney Management Services", "address": "10451 W Palmeras Dr, Ste 101", "city": "Sun City", "state": "AZ", "postal_code": "85373", "latitude": 33.6407692, "longitude": -112.2796633, "stars": 1.0, "review_count": 3, "is_open": 1, "attributes": null, "categories": "Property Management, Real Estate, Home Services", "hours": null}
{"business_id": "DGOWO87MQmA4-2swRLK2DA", "name": "Sunset Bistro", "address": "15462 N 99th Ave", "city": "Sun City", "state": "AZ", "postal_code": "85351", "latitude": 33.6214728186, "longitude": -112.2697876766, "stars": 4.5, "review_count": 18, "is_open": 1, "attributes": {"WiFi": "'no'", "OutdoorSeating": "True", "GoodForKids": "True", "BusinessAcceptsCreditCards": "True", "RestaurantsAttire": "'casual'", "RestaurantsTakeOut": "True", "RestaurantsReservations": "False", "NoiseLevel": "u'average'", "RestaurantsGoodForGroups": "True", "RestaurantsDelivery": "False", "GoodForMeal": "{'dessert': False, 'latenight': False, 'lunch': True, 'dinner': False, 'brunch': False, 'breakfast': False}", "BikeParking": "True", "Ambience": "{'romantic': False, 'intimate': False, 'classy': False, 'hipster': False, 'divey': False, 'touristy': False, 'trendy': False, 'upscale': False, 'casual': False}", "RestaurantsPriceRange2": "1", "RestaurantsTableService": "True", "HasTV": "True", "Alcohol": "'full_bar'", "BusinessParking": "{'garage': False, 'street': False, 'validated': False, 'lot': False, 'valet': False}"}, "categories": "Mediterranean, Greek, Restaurants", "hours": null}
{"business_id": "12_HZrcGfQny55r-bILQWQ", "name": "Ace Fitness", "address": "", "city": "Sun City", "state": "AZ", "postal_code": "85373", "latitude": 33.5975303635, "longitude": -112.2718346288, "stars": 3.5, "review_count": 3, "is_open": 1, "attributes": {"ByAppointmentOnly": "True", "RestaurantsPriceRange2": "2", "BusinessAcceptsCreditCards": "True"}, "categories": "Movers, Appliances & Repair, Fitness/Exercise Equipment, Local Services, Shopping, Home Services", "hours": {"Monday": "8:0-17:0", "Tuesday": "8:0-17:0", "Wednesday": "8:0-17:0", "Thursday": "8:0-17:0", "Friday": "8:0-17:0"}}
{"business_id": "o1nRrhcoKS9XvBM9t4SOnw", "name": "Traditional Tattoo", "address": "19218 N Carnation Dr", "city": "Sun City", "state": "AZ", "postal_code": "85373", "latitude": 33.582838, "longitude": -112.170102, "stars": 1.5, "review_count": 7, "is_open": 1, "attributes": {"ByAppointmentOnly": "False", "BikeParking": "True", "BusinessAcceptsCreditCards": "False", "BusinessParking": "{'garage': False, 'street': True, 'validated': False, 'lot': False, 'valet': False}", "RestaurantsPriceRange2": "1"}, "categories": "Permanent Makeup, Tattoo, Piercing, Beauty & Spas", "hours": {"Monday": "13:0-1:0", "Tuesday": "13:0-1:0", "Wednesday": "13:0-1:0", "Thursday": "13:0-1:0", "Friday": "13:0-3:0", "Saturday": "14:0-3:0", "Sunday": "14:0-1:0"}}
